Location,Followers,Following,Stars,Contributions,Weight,Longitude,Latitude
"Buffalo, New York",8,3,1,7,5.0,-78.8783922,42.8867166
India,7,10,39,458,197.3,78.6677428,22.3511148
"San Francisco, CA",47,14,24,505,220.0,-71.2743272,46.8443248
"Paderborn, Germany",28,46,99,44,57.5,8.752653,51.7177044
beijing,4,31,26,5,13.7,116.412144,40.190632
Arizona,13,35,307,115,144.2,-111.7632755,34.395342
New York,29,0,10,99,48.40000000000001,-74.0060152,40.7127281
New York,29,0,10,99,48.40000000000001,-74.0060152,40.7127281
4936,33,70,47,1,28.1,22.3874138022565,48.19455485
"Kolkata, India",530,28,344,2067,1038.8000000000004,88.3567751581234,22.54541245
"Berlin, Germany",13,14,390,627,371.8,13.4025498,52.5015217
Bangalore,2,3,3,110,45.6,77.5912997,12.9791198
Hamburg/ Germany ,1,1,1,13,5.800000000000002,10.000654,53.550341
"Oakland, CA",110,16,94,62,76.6,-64.3551639,44.4521637
"Great Rift Valley, Kenya",49,63,118,104,93.1,36.6008833,-1.0667201
"Stanford, CA",11,1,17,37,22.200000000000006,-122.17029258409187,37.426540700000004
"Brisbane, Australia",197,245,291,2291,1067.6,153.0234991,-27.4689682
Chile,19,4,38,18,22.8,-71.3187697,-31.7613365
"Pune, India",29,37,432,150,199.1,73.8544541,18.521428
London,1,0,0,13,5.4,-0.1276474,51.5073219
"Nottingham, United Kingdom",32,26,9,457,194.5,-1.1496461,52.9534193
New York,3,0,0,3,1.8000000000000005,-74.0060152,40.7127281
"Dublin, Ireland",4,4,4,1,2.8000000000000003,-6.2602732,53.3497645
"Charlotte, NC",3,0,0,0,0.6000000000000001,-80.843083,35.2272
Bangalore ,47,100,227,541,303.9,77.5912997,12.9791198
"jaladhar,punjab",26,10,3,272,115.9,,
"Bogotá, Colombia",10,32,36,1,16.4,-74.0760439,4.59808
Italy,108,8,10,798,344.6,12.674297,42.6384261
Seattle,7,52,241,2,79.69999999999997,-122.3300624,47.6038321
"Austin, TX",13,27,220,285,185.3,-97.7436995,30.2711286
"Salt Lake City, UT",0,1,0,0,0.1,-111.8867975,40.7596198
North America,2,0,1,64,26.3,-109.0000002,51.0000002
San Diego,3,1,3,15,7.6,-117.1627714,32.7174209
Boston,15,0,6,28,16.0,-71.0582912,42.3602534
"Denver, Colorado",15,0,6,6,7.2,-104.9848623,39.7392364
glasgow,10,16,11,63,32.1,-4.2488787,55.8609825
"Zhejiang,China",45,56,223,17,88.3,119.9999999,29.0000001
Berlin,143,36,188,424,258.20000000000005,13.4025498,52.5015217
"Barkhamsted, CT",458,6,129,29,142.5,-72.9139904,41.9292629
Canada,10,10,1,105,45.3,-107.9917071,61.0666922
Chicago ,3,0,1,0,0.9000000000000001,-87.6244212,41.8755616
London,16,59,291,44,114.0,-0.1276474,51.5073219
San Francisco,7,5,39,37,28.4,-122.4199061,37.7790262
London,7,5,39,220,101.6,-0.1276474,51.5073219
Stockholm,4,5,3,415,168.2,18.0710935,59.3251172
"Pune, Maharashtra, India",17,10,5,101,46.3,73.8544541,18.521428
Spain,1,1,1,1,1.0,-4.8380649,39.3262345
Istanbul,99,4,49,863,380.1,28.9651646,41.0096334
Halifax,2,4,0,2091,837.2,-63.5859487,44.648618
Munich,1,0,12,57,26.6,11.5753822,48.1371079
"Milwaukee, WI",0,1,1,63,25.6,-87.922497,43.0349931
"Changchun, Jilin",8,30,111,1,38.3,125.3171216,43.8130735
"Barkhamsted, CT",458,6,129,29,142.5,-72.9139904,41.9292629
北京.海淀,4,25,157,0,50.4,116.412144,40.190632
"Washington, DC",564,9,29,556,344.8,-77.0365581,38.8949924
Hyderabad,3,2,1,7,3.9,78.46106473453146,17.38878595
"TOKYO-JAPAN, ROK-SEOUL",130,11,168,7756,3179.9,,
"Chennai,Tamil Nadu,India",31,29,19,23,24.0,80.2838331,13.0801721
"Dublin, Ireland",10,11,2,1,4.1000000000000005,-6.2602732,53.3497645
"San Francisco, CA",4,3,15,81,38.0,-71.2743272,46.8443248
India,1,0,0,0,0.2,78.6677428,22.3511148
Delhi,0,0,1,5,2.3,77.1716954,28.6273928
"Bloomington, IN",0,1,0,0,0.1,-86.5342881,39.1670396
Brazil,106,133,423,4938,2136.6,-53.2,-10.3333333
"TOKYO-JAPAN, ROK-SEOUL",130,11,168,7756,3179.9,,
Ghana,12,14,56,0,20.6,-1.0800271,8.0300284
"Munich, Germany.",12,14,56,9,24.200000000000006,11.5753822,48.1371079
"Atlanta, GA",5,3,8,0,3.7,-84.3901849,33.7490987
"Dallas, Texas",4,9,0,3,2.9000000000000004,-96.7968559,32.7762719
Kochi,16,34,94,80,66.8,76.2674136,9.931308
TX,2,6,1,0,1.3,-99.5120986,31.8160381
"Sheffield, United Kingdom",4,4,3,657,264.90000000000003,-1.4702278,53.3806626
Athens,3,2,2,0,1.4,23.7283052,37.9839412
"Houston, TX",3,2,2,1,1.7999999999999998,-95.3676974,29.7589382
Phoenix,2,3,0,12,5.500000000000001,-112.0741417,33.4484367
Singapore,4,4,15,929,377.3,103.83039182212079,1.3408630000000001
India Kolkata,44,7,47,410,187.6,88.3567751581234,22.54541245
"London, UK",3,4,4,9,5.800000000000002,-0.1276474,51.5073219
"Mountain View, CA",37,0,0,7,10.2,-113.6,49.133333
"London, UK",78,5,0,66,42.5,-0.1276474,51.5073219
L1 Cache,54,73,393,2162,1000.8,-98.6286741,34.6295165
Boston,84,15,48,266,139.10000000000002,-71.0582912,42.3602534
"Islamabad, Pakistan",1,14,104,19,40.4,73.0651511,33.6938118
London,2,2,5,247,100.9,-0.1276474,51.5073219
São Paulo,1,5,0,12,5.500000000000001,-46.6333824,-23.5506507
Pittsburg CA,1,1,1,7,3.4000000000000004,-121.8901232,38.0181745
"Kiev, Ukraine",8,2,0,50,21.8,30.5241361,50.4500336
"Saint Louis, MO",40,54,59,128,82.30000000000003,-90.1994097,38.6268039
"Kolkata,INDIA",15,1,9,132,58.6,88.3567751581234,22.54541245
"iran , tehran",1,31,10,38,21.5,51.4013785,35.7006177
"Taiwan, Yilan",9,30,698,80,246.2,121.7533344,24.7519538
San Francisco Bay Area,3,39,41,0,16.799999999999994,-122.3558473,37.7884969
"Dublin, Ireland",57,22,93,361,185.9,-6.2602732,53.3497645
UK,1,8,0,1,1.4,-3.2765753,54.7023545
Malaysia,4,6,2,3,3.2,102.2656823,4.5693754
"Milwaukee, WI",0,0,3,41,17.3,-87.922497,43.0349931
"Kolkata, West Bengal, India",9,14,10,12,11.0,88.3567751581234,22.54541245
"Ramos Mejia, Buenos Aires, Argentina",0,2,7,5,4.300000000000002,-58.5622869,-34.6481661
South Africa,1,0,2,5,2.8,24.991639,-28.8166236
BeiJing,2,2,17,23,14.9,116.412144,40.190632
"Milwaukee, WI",0,0,3,41,17.3,-87.922497,43.0349931
"Waterloo, CA",3,2,51,79,47.7,-80.524635,43.466874
Mississauga,1,1,6,0,2.1,-79.645729,43.590338
"Irvine, CA",9,18,36,19,22.0,-110.27326,49.9584438
India,9,0,18,32,20.0,78.6677428,22.3511148
Mumbai,17,74,54,8,30.2,72.8353355,18.9387711
delhi india,1,0,7,4,3.9,77.1716954,28.6273928
Chennai,6,11,0,37,17.1,80.2838331,13.0801721
Dallas,1,0,0,0,0.2,-96.7968559,32.7762719
Tijuana B.C mexico,10,8,18,152,69.0,-116.9646629,32.5010188
"Pune, India",0,1,2,0,0.7,73.8544541,18.521428
"Dhaka, Bangladesh",36,0,1,13,12.7,90.4126466,23.810651
Bengaluru,1,0,0,39,15.8,77.5912997,12.9791198
New York city,1,0,3,21,9.5,-74.0060152,40.7127281
Seattle,61,0,1,259,116.1,-122.3300624,47.6038321
"HCMC, VietNam",0,0,2,216,87.0,106.8025596,10.8753553
Goiânia - GO,59,12,2,72,42.4,-49.2532691,-16.680882
"Bangalore, India",59,12,2,15,19.6,77.5912997,12.9791198
"Zacatecas, México",4,12,14,25,16.2,-103.0000001,23.0000001
london UK,0,4,13,93,41.5,-0.1276474,51.5073219
"Kolkata, India",51,14,6,73,42.60000000000001,88.3567751581234,22.54541245
Japan,15,21,11,329,140.0,139.2394179,36.5748441
Australia,0,0,1,185,74.3,134.755,-24.7761086
"Bangalore, India",0,0,1,0,0.3,77.5912997,12.9791198
pittsburgh,8,0,2,0,2.2,-79.9900861,40.4416941
Hyderabad,3,1,13,53,25.800000000000004,78.46106473453146,17.38878595
Toronto,1,0,1,19,8.100000000000001,-79.3839347,43.6534817
"New Delhi, India",15,0,61,646,279.70000000000005,77.2090057,28.6138954
"Kolkata, India",0,3,4,22,10.3,88.3567751581234,22.54541245
"New Delhi,India",1,1,0,0,0.30000000000000004,77.2090057,28.6138954
Bangalore,6000,0,2,388,1355.8,77.5912997,12.9791198
tirupati,6000,0,2,6,1203.0,79.4231711,13.6316368
Dallas TX,0,1,19,0,5.8,-96.7972991,32.7768956
Gurgaon,8,13,21,116,55.60000000000001,77.0299194,28.4646148
"Gothenburg, Sweden",8,4,8,6,6.800000000000002,11.9670171,57.7072326
"Karachi, Pakistan",8,4,8,2,5.2,67.0311286,24.8667795
Gurgaon,1,1,0,0,0.30000000000000004,77.0299194,28.4646148
Mumbai | India,1,1,0,1,0.7000000000000001,72.8353355,18.9387711
Stoke on Trent. UK,695,0,19,91,181.1,-2.1812607,53.0162014
"Jersey City, NJ",2,1,4,134,55.3,-74.0776417,40.7281575
"Boston , Massachusettes",24,13,1,95,44.4,,
"Jabalpur,India",1,10,29,0,9.9,79.9497702,23.1608938
"Tucson, Arizona, USA",0,1,5,73,30.800000000000004,-110.9748477,32.2228765
New Delhi,3,3,14,11,9.5,77.2090057,28.6138954
Mumbai,4,5,2,47,20.7,72.8353355,18.9387711
"Stockholm, Sweden",0,1,0,59,23.700000000000006,18.0710935,59.3251172
Kota,0,1,4,18,8.5,76.00089330885552,25.1968256
Knoxville,10,7,142,259,148.9,-83.9210261,35.9603948
São Paulo - Brasil,5,7,19,2,8.200000000000001,-46.6333824,-23.5506507
Ireland,1,2,0,31,12.8,-7.9794599,52.865196
Pune,1,3,1,3,2.0,73.8544541,18.521428
Noida Sec-27,6,6,0,126,52.2,77.0161911,28.4702663
New York City,1,7,50,135,69.9,-74.0060152,40.7127281
Hyderabad,14,24,23,18,19.3,78.46106473453146,17.38878595
"Stuttgart, Germany",41,2,32,990,414.0,9.1800132,48.7784485
Benguluru,1,1,0,0,0.30000000000000004,,
"Karachi, Pakistan",12,0,0,21,10.8,67.0311286,24.8667795
"Toronto, Canada",78,9,17,772,330.4000000000001,-79.3839347,43.6534817
"Pune, India",2,8,0,110,45.2,73.8544541,18.521428
"Pune, India",4,25,51,95,56.6,73.8544541,18.521428
Bangalore,3,0,0,51,21.000000000000004,77.5912997,12.9791198
"Dhaka, Bangladesh",0,1,0,26,10.5,90.4126466,23.810651
Singapore,204,250,10,678,340.0,103.83039182212079,1.3408630000000001
Tempe,4,4,9,51,24.3,-111.9400125,33.4255056
"Brisbane, Australia",0,0,1,89,35.9,153.0234991,-27.4689682
"Mountain View, CA",37,0,0,7,10.2,-113.6,49.133333
Sweden,20,2,0,75,34.2,14.5208584,59.6749712
COIMBATORE,10,11,13,194,84.60000000000002,76.9628425,11.0018115
New Zealand,1,0,3,103,42.3,172.8344077,-41.5000831
"Boston, Massachusetts",1,0,1,12,5.300000000000002,-71.0582912,42.3602534
"Memphis, Tennessee",8,9,16,14,12.9,-90.0516285,35.1490215
Dhaka,1,8,5,35,16.5,90.4126466,23.810651
Kolkata,17,21,17,11,15.0,88.3567751581234,22.54541245
"West Lafayette, IN",10,16,33,76,43.90000000000001,-86.9080655,40.4258686
Tokyo,2,6,5,989,398.1,139.7594549,35.6828387
İstanbul,1,1,0,33,13.500000000000002,28.9651646,41.0096334
Thessaloniki,1,1,0,117,47.1,22.9352716,40.6403167
India,1,3,16,47,24.1,78.6677428,22.3511148
Mumbai,25,2,28,472,202.4,72.8353355,18.9387711
"Guelph, Ontario, Canada",2,1,2,89,36.7,-80.2306337,43.533783
Shanghai,9,30,30,219,101.4,121.4692071,31.2322758
"Pittsburgh, PA",16,3,8,168,73.10000000000002,-79.9900861,40.4416941
Switzerland,37,6,1,172,77.1,8.2319736,46.7985624
"Harrison,New Jersey",0,1,0,0,0.1,-74.1562551,40.7464901
United States,0,14,48,27,26.6,-100.4458825,39.7837304
"Poland, Kraków",38,77,245,1031,501.2000000000001,19.9368564,50.0619474
"Lille, France",17,2,7,1909,769.3000000000002,3.0635282,50.6365654
Shanghai,9,30,30,224,103.4,121.4692071,31.2322758
"Pittsburgh, PA",16,3,8,168,73.10000000000002,-79.9900861,40.4416941
"Lagos, Nigeria",56,38,176,793,385.00000000000006,3.3941795,6.4550575
SF Bay Area,6,0,7,1037,418.1,-122.3558473,37.7884969
Banglore India,1,0,0,36,14.6,78.8087788,18.3903609
"Syracuse, New York, US",5,1,7,83,36.40000000000001,-76.1474244,43.0481221
"Pittsburgh, PA",16,3,8,168,73.10000000000002,-79.9900861,40.4416941
"New Delhi, India",95,248,126,228,172.8,77.2090057,28.6138954
"DELHI,INDIA",2,3,0,39,16.3,77.1716954,28.6273928
India,2,1,0,83,33.7,78.6677428,22.3511148
"Lahore, Pakistan",4,10,10,128,56.0,74.3141829,31.5656822
"Bengaluru, Karnataka ",68,5,14,1237,513.1,77.5912997,12.9791198
Hyderabad,0,0,1,26,10.7,78.46106473453146,17.38878595
Hyderabad,0,1,0,10,4.1,78.46106473453146,17.38878595
Nakuru,10,19,3,108,48.0,36.0712048,-0.2802724
New York City,1,1,4,814,327.1,-74.0060152,40.7127281
Israel,1,2,0,74,30.0,34.8667654,31.5313113
United States,1,2,0,54,22.0,-100.4458825,39.7837304
India,5,8,61,5105,2062.1,78.6677428,22.3511148
India,1,2,0,57,23.2,78.6677428,22.3511148
Australia,1,2,0,43,17.599999999999994,134.755,-24.7761086
"Wales, UK",824,2,57,2535,1196.1,-3.73893,52.2928116
"Trichy,India ",13,16,6,451,186.4,78.6870296,10.804973
Hong Kong,14,14,229,583,306.1,114.1849161,22.350627
"Buffalo, New York",1,2,2,222,89.80000000000003,-78.8783922,42.8867166
"Tehran, Iran ",82,281,185,337,234.8,51.4013785,35.7006177
Delhi,1,2,3,113,46.5,77.1716954,28.6273928
"Haryana, India",1,1,0,51,20.700000000000006,76.0,29.0
Australia,1,1,0,89,35.9,134.755,-24.7761086
"Valsad,India",8,5,3,165,69.0,73.1411715553577,20.4324018
"Bhubhaneshwar,India.",2,2,6,59,26.0,,
Île-de-France,18,59,220,657,338.3,2.7537863,48.6443057
Hyderabad,1,9,0,18,8.3,78.46106473453146,17.38878595
Chicago,2,3,13,249,104.2,-87.6244212,41.8755616
Ottawa,1,1,0,83,33.5,-75.690308,45.421106
dhaka,0,0,15,264,110.1,90.4126466,23.810651
"35,000 ft. up in the air ",0,2,2,90,36.8,,
Egypt-minia,3,1,0,38,15.9,30.7570623,28.0893325
Bangalore,4,4,0,84,34.800000000000004,77.5912997,12.9791198
"Lagos,Nigeria",10,34,27,90,49.5,3.3941795,6.4550575
Bangalore,2,0,0,53,21.6,77.5912997,12.9791198
"Orlando, FL",0,2,0,56,22.6,-81.3790304,28.5421109
Nigeria,0,12,45,59,38.3,7.9999721,9.6000359
Blumenau,65,18,39,270,134.5,-49.0658025,-26.9195567
UK,65,18,39,29,38.1,-3.2765753,54.7023545
delhi,3,4,0,20,9.0,77.1716954,28.6273928
Boston,0,1,0,19,7.7,-71.0582912,42.3602534
"Clemson, SC",0,1,0,14,5.7,-82.8364111,34.6850749
New Delhi,1,1,0,84,33.9,77.2090057,28.6138954
India,1,1,0,48,19.500000000000004,78.6677428,22.3511148
Mumbai,307,6,12,375,215.6,72.8353355,18.9387711
"Satna, Madhya Pradesh",0,1,6,31,14.3,81.0,24.5
Mumbai,14,7,1,250,103.8,72.8353355,18.9387711
Raleigh-Durham,14,7,1,56,26.200000000000006,-78.78723821716514,35.880361449999995
"Kolkata, West Bengal, India",13,2,2,188,78.60000000000002,88.3567751581234,22.54541245
"Ellensburg, WA",6,8,3,114,48.5,-120.5451223,46.9970635
Kolkata,0,7,2,87,36.1,88.3567751581234,22.54541245
"Rogers, Arkansas",2,0,1,124,50.3,-94.1185366,36.3320197
"Boston, USA",2,0,1,7,3.5,-71.0582912,42.3602534
Freiberg,2,0,1,112,45.50000000000001,7.8494005,47.9960901
"Pune, India",0,4,6,230,94.2,73.8544541,18.521428
Hyderabad,2,3,0,640,256.7,78.46106473453146,17.38878595
solapur,0,0,3,72,29.7,75.27632027348457,17.84990665
Presidente Prudente - SP - Brasil,6,1,0,322,130.10000000000002,-51.41624990198266,-22.1276335
Bolivia,1,2,1,9,4.3,-64.9912286,-17.0568696
"Lund, Sweden",0,0,5,31,13.9,13.1929449,55.7029296
Hong Kong,1,1,0,4,1.9,114.1849161,22.350627
"Durham, North Carolina",2,1,0,26,10.9,-78.9018053,35.996653
Bangalore,2,1,0,127,51.3,77.5912997,12.9791198
"Chandigarh, India",12,11,0,275,113.5,76.78414567016054,30.72984395
"1721 East Beltline Rd., Coppell, TX 75019",3,4,0,10,5.0,,
Campbellton NB Canada,5,2,0,40,17.2,-66.6768648,48.0046993
"New Delhi, India",7,8,7,13,9.5,77.2090057,28.6138954
"New Delhi, India",7,8,7,31,16.700000000000006,77.2090057,28.6138954
México,2,0,5,37,16.7,-100.0000375,22.5000485
"Denver, Colorado",0,1,0,231,92.5,-104.9848623,39.7392364
"Pune,INDIA",5,2,7,797,322.1,73.8544541,18.521428
Hyderabad,2,1,3,95,39.4,78.46106473453146,17.38878595
"Alibag, India",1,1,1,14,6.200000000000001,72.95201127018711,18.6571882
Toronto,6,0,0,57,24.0,-79.3839347,43.6534817
Patna,10,17,5,151,65.60000000000001,85.1235252,25.6093239
Hyderabad,1,2,1,10,4.7,78.46106473453146,17.38878595
Sri Lanka,3,0,7,159,66.3,80.7137847,7.5554942
Gandhinagar,3,0,7,365,148.7,72.6492267,23.2232877
dallas fortwort,0,5,0,36,14.9,,
Bangalore,0,5,0,35,14.5,77.5912997,12.9791198
"Cape Town, South Africa",2,6,36,692,288.6,18.417396,-33.928992
"Pune,Maharashtra,India",2,6,36,30,23.8,73.8544541,18.521428
"warrangal,telangana",0,23,0,71,30.700000000000006,,
Uruguay,0,23,0,32,15.1,-56.0201525,-32.8755548
United States,2,0,0,36,14.8,-100.4458825,39.7837304
"Hyderabad,India",1,2,1,139,56.3,78.46106473453146,17.38878595
New York,1,2,1,11,5.1000000000000005,-74.0060152,40.7127281
Sweden ,1,2,1,4,2.3,14.5208584,59.6749712
"Mumbai,India",1,1,13,45,22.2,72.8353355,18.9387711
"College of Engineering And Technology,Bhubaneswar",8,5,8,350,144.5,85.77666566309614,20.27545065
Malaysia,0,1,0,14,5.7,102.2656823,4.5693754
"warrangal,telangana",0,23,0,71,30.700000000000006,,
Nagercoil,0,23,0,73,31.500000000000004,77.4290492,8.1880471
Belo Horizonte,0,0,1,22,9.1,-43.9450948,-19.9227318
"Hyderabad, India",0,0,1,87,35.1,78.46106473453146,17.38878595
"Chennai,India",21,22,17,198,90.7,80.2838331,13.0801721
"Lake Forest, Illinois, US",1,5,2,37,16.1,-87.840625,42.2586342
Greater Noida,0,0,2,56,23.000000000000004,77.5137649,28.4670734
New Delhi,1,2,6,339,137.79999999999998,77.2090057,28.6138954
Bangalore,1,2,6,17,9.0,77.5912997,12.9791198
Mogi-Guaçu SP,1,0,0,166,66.60000000000001,-46.9425,-22.372222
Amsterdam,1,10,6,19,10.6,4.8936041,52.3727598
"Boston, Massachusetts",0,0,1,40,16.3,-71.0582912,42.3602534
"Amrita Vishwa Vidyapeetham Amritapuri ,Kollam, India",15,27,31,191,91.4,76.49189664751758,9.09399255
Algeria,1,2,1,40,16.7,2.9999825,28.0000272
India,0,0,9,73,31.9,78.6677428,22.3511148
"New delhi, delhi",4,12,4,71,31.6,77.2090057,28.6138954
Khulna,9,72,5,83,43.7,89.44492672055918,22.815139549999998
Kota,0,1,4,18,8.5,76.00089330885552,25.1968256
"Thessaloniki, Greece",1,5,0,1159,464.3,22.9352716,40.6403167
manipal,1,5,0,105,42.7,74.7870308,13.3519723
Internet,17,34,17,276,122.3,-72.33465445105234,19.37218875
"Greece, Thessaloniki",7,16,6,954,386.4,22.9352716,40.6403167
"Lonavala,Maharashta,India",6,4,23,163,73.7,,
"Melbourne & Geelong, Australia",15,21,43,578,249.2,144.351152,-38.1334183
Barcelona,1,5,1,269,108.6,2.1774322,41.3828939
VIT Vellore,10,5,192,101,100.5,79.16075427896692,12.97229435
PES University,10,5,192,31,72.5,77.53215983323346,12.93488755
Portugal,2,5,0,72,29.7,-7.8896263,40.0332629
India,2,50,26,684,286.8,78.6677428,22.3511148
Arinos,4,13,0,206,84.5,-46.106111,-15.917223
Nagpur,4,13,0,16,8.5,79.0820556,21.1498134
Bangladesh,2,0,1,206,83.10000000000002,90.2932426,24.4768783
"Dublin, Ireland",29,39,10,126,63.10000000000001,-6.2602732,53.3497645
"New Delhi , India",8,13,494,237,245.9,77.2090057,28.6138954
"Los Angeles, CA",1,1,1,3,1.8000000000000005,-118.2427666,34.0536909
"Minas Gerais, Brazil",0,2,1,184,74.10000000000002,-44.1588654,-18.5264844
"Lagos, Nigeria",29,13,41,56,41.8,3.3941795,6.4550575
"Tempe, Arizona",12,38,40,1153,479.4,-111.9400125,33.4255056
Pakistan,29,5,0,93,43.5,71.247499,30.3308401
"Pretoria, South Africa",2,8,78,173,93.8,28.1879444,-25.7459374
"New York, NY",3,3,10,693,281.1,-74.0060152,40.7127281
Bangalore,1,0,4,285,115.4,77.5912997,12.9791198
Mumbai,3,12,26,184,83.2,72.8353355,18.9387711
Germany,8,6,51,98,56.7,10.4234469,51.0834196
"Mountain View, CA",19,10,14,20,17.0,-113.6,49.133333
Montreal,30,27,40,225,110.7,-73.6103642,45.4972159
"Toronto, Ontario",45,83,45,1,31.2,-79.3839347,43.6534817
"Russia, Armenia",216,6,52,595,297.4,44.5103028,40.1716945
"McKinleyville, CA",216,6,52,0,59.40000000000001,-65.6652825,46.8676427
USA,3,0,0,33,13.8,-100.4458825,39.7837304
"Greensboro, NC",22,1,23,20,19.4,-79.7919754,36.0726355
San Jose,22,1,23,0,11.4,-121.8905833,37.3361905
"Hyderabad, India",22,17,70,51,47.5,78.46106473453146,17.38878595
"Auckland, New Zealand",22,17,70,1,27.5,174.7631803,-36.852095
"TOKYO-JAPAN, ROK-SEOUL",130,11,168,7829,3209.100000000001,,
"New York, NY",12,80,329,18,116.3,-74.0060152,40.7127281
United States,10,9,9,114,51.2,-100.4458825,39.7837304
"San Jose, CA",6,0,19,6,9.3,-121.8905833,37.3361905
Copenhagen,1,3,5,0,2.0,12.5700724,55.6867243
"Cuttack , Odisha , India",13,10,8,81,38.4,85.8792,20.4686
MUMBAI,0,5,2,1,1.5,72.8353355,18.9387711
"Draveil, France",0,0,2,0,0.6,2.4083576,48.6851514
"Markhan, ON",1,0,5,28,12.9,,
San Francisco,6,24,23,83,43.7,-122.4199061,37.7790262
"Montréal, Canada",8,24,8,186,80.80000000000003,-73.6103642,45.4972159
"Pittsburgh, PA",16,18,32,15,20.6,-79.9900861,40.4416941
India,31,36,347,140,169.89999999999995,78.6677428,22.3511148
"Philadelphia, PA",12,18,13,99,47.7,-75.1635262,39.9527237
Exeter ,6,1,0,6,3.7000000000000006,-3.5269108,50.725562
"Budapest, Hungary",6,1,0,0,1.3000000000000005,19.14607278448202,47.48138955
"Vancouver, Canada",2,0,0,77,31.2,-123.1139529,49.2608724
"Hyderabad, India",14,25,23,78,43.40000000000001,78.46106473453146,17.38878595
Bengaluru,14,25,23,0,12.2,77.5912997,12.9791198
Los Angeles,0,1,0,6,2.5000000000000004,-118.2427666,34.0536909
"Austin,TX",0,0,1,0,0.3,-97.7436995,30.2711286
JAPAN,5,16,59,75,50.3,139.2394179,36.5748441
"Fortaleza, Ceará, Brazil",113,134,521,1844,929.9,-38.5217989,-3.7304512
bangalore,113,134,521,0,192.3,77.5912997,12.9791198
Jamshedpur,5,17,48,0,17.099999999999998,86.2029579,22.8015194
"Chicago, IL",13,3,129,89,77.19999999999997,-87.6244212,41.8755616
Bangalore,13,3,129,2,42.39999999999999,77.5912997,12.9791198
Palo Alto,24,9,19,35,25.4,-122.1598465,37.4443293
"Oulu, Finland. ",3,0,0,51,21.000000000000004,25.4716809,65.0118734
"Burnaby, BC, Canada",30,0,1,34,19.9,-122.9725459,49.2433804
"Bhubaneswar, India",1,9,0,0,1.1,85.8435592,20.2667774
Chennai,12,134,0,31,28.200000000000006,80.2838331,13.0801721
Yogyakarta,3,1,0,0,0.7000000000000001,110.364917,-7.8011945
Travelling across the USA,1,2,11,62,28.5,,
"Cincinnati, Ohio, United States",1,0,0,0,0.2,-84.5124602,39.1014537
Patan,1,1,0,0,0.30000000000000004,71.68373465668734,23.77405735
Bengaluru,0,2,1,0,0.5,77.5912997,12.9791198
"Bellingham, WA",0,2,1,0,0.5,-122.4788361,48.7544012
GWALIOR,0,0,2,10,4.6,78.1573628,26.2037247
"Rochester, NY",0,0,1,0,0.3,-77.615214,43.157285
"Los Angeles, CA",0,1,1,114,46.0,-118.2427666,34.0536909
Sri Lanka,17,30,130,786,359.8,80.7137847,7.5554942
Hyderabad,45,0,98,47,57.2,78.46106473453146,17.38878595
"Portland, OR",4,8,21,0,7.9,-122.6741949,45.5202471
"Melbourne, Australia",92,8,2,1010,423.8,144.9631608,-37.8142176
"Chennai, India",1,0,0,19,7.800000000000002,80.2838331,13.0801721
Israel,44,21,316,2561,1130.1,34.8667654,31.5313113
Dehradun,1,7,14,7,7.9,78.0436813,30.3255646
India,1,7,0,0,0.9000000000000001,78.6677428,22.3511148
"Dhaka, Bangladesh",13,43,28,31,27.700000000000006,90.4126466,23.810651
"San Diego, California",4,5,11,2,5.4,-117.1627714,32.7174209
Jakarta Selatan.Indonesia,18,66,37,8,24.5,106.80486349194814,-6.28381815
Hyderabad,2,4,1,0,1.1,78.46106473453146,17.38878595
"New York, NY",62,104,75,412,210.1,-74.0060152,40.7127281
KITALE,2,7,38,35,26.5,35.000236,1.018076
Mumbai,2,7,38,3,13.7,72.8353355,18.9387711
California,2,7,38,0,12.5,-118.7559974,36.7014631
"Espoo, Finland",2,7,38,44,30.1,24.6603626,60.2241869
"La Crosse, WI",2,0,4,0,1.6,-91.2395429,43.8014053
Kanyakumari,8,7,5,11,8.200000000000001,77.5499338,8.079252
Minneapolis-St. Paul,7,23,122,108,83.5,-95.66567459425735,44.07517895
"Dublin 4, Ireland ",2,8,1,0,1.5000000000000002,-6.227485885927834,53.32750729999999
Nairobi Kenya,91,77,90,1337,587.7,36.8172449,-1.2832533
Boston,1,10,0,15,7.2,-71.0582912,42.3602534
"Kamand , Mandi , H.P.(175005)",2,0,0,71,28.8,76.9878687,31.7767117
Bangalore,28,13,4,121,56.50000000000001,77.5912997,12.9791198
USA,26,25,16,511,216.9,-100.4458825,39.7837304
Bangalore,15,13,25,139,67.4,77.5912997,12.9791198
"Seattle, WA",13,14,1,4,5.9,-122.3300624,47.6038321
Seattle,1,17,0,0,1.9,-122.3300624,47.6038321
Shanghai,26,37,82,91,69.9,121.4692071,31.2322758
Seattle,7,8,33,35,26.1,-122.3300624,47.6038321
"Beijing, China",100,18,136,357,205.4,116.412144,40.190632
"Chennai,TamilNadu,India",11,27,104,37,50.90000000000001,80.2838331,13.0801721
"Toronto, ON",2,1,116,9,38.9,-79.3839347,43.6534817
Ireland,5,4,4,0,2.6,-7.9794599,52.865196
Washington DC,0,1,0,22,8.9,-77.0365581,38.8949924
Nigeria,3,6,8,0,3.6,7.9999721,9.6000359
Nairobi,8,6,2,9,6.4,36.8172449,-1.2832533
Shanghai,28,42,101,67,66.89999999999999,121.4692071,31.2322758
"Toronto, ON",2,1,116,9,38.9,-79.3839347,43.6534817
Ireland,5,4,4,0,2.6,-7.9794599,52.865196
"Abuja, Nigeria",5,4,1,24,11.3,7.4892974,9.0643305
"Mumbai, Maharashtra",5,4,1,0,1.7,72.8353355,18.9387711
São Paulo/SP,0,1,0,0,0.1,-46.6333824,-23.5506507
Kolkata,2,17,3,660,267.0,88.3567751581234,22.54541245
"Steenbeker weg, Kiel, Germany",0,3,0,3,1.5000000000000002,10.0913449,54.3546541
MUMBAI,1,0,3,15,7.1,72.8353355,18.9387711
Mumbai,17,74,54,8,30.2,72.8353355,18.9387711
New Delhi,2,4,12,32,17.2,77.2090057,28.6138954
"Helsinki, Finland.",1,9,3,2,2.8,24.9425769,60.1674098
Brazil,15,2,5,24,14.3,-53.2,-10.3333333
Portland Oregon,3,0,0,0,0.6000000000000001,-122.6741949,45.5202471
Cincinnati,3,0,0,0,0.6000000000000001,-84.5124602,39.1014537
hyderabad,21,30,52,93,60.0,78.46106473453146,17.38878595
"Utah, USA",24,16,16,33,24.4,-111.7143584,39.4225192
Chengdu,7,1,6,60,27.3,104.0633219,30.6624205
"Lagos, Nigeria ",0,0,1,2,1.1,3.3941795,6.4550575
New York,2,0,1,16,7.1000000000000005,-74.0060152,40.7127281
"Austin, TX",11,9,13,0,7.0,-97.7436995,30.2711286
"Amritapuri,Kollam,Kerala",11,9,13,19,14.6,76.4879756,9.0899459
"Barcelona, Spain",43,6,33,2840,1155.1,2.1774322,41.3828939
Bangalore,3,1,0,2,1.5,77.5912997,12.9791198
Ciudad Autónoma de Buenos Aires,2,41,32,737,308.9000000000001,-58.4370894,-34.6075682
Rajahmundry,1,1,0,0,0.30000000000000004,81.7804732,17.0050454
"Razole ,East Godavari, Andhra Pradesh",1,1,0,189,75.9,81.86157873328145,16.462868299999997
Madrid ,1,1,0,0,0.30000000000000004,-3.7035825,40.4167047
Japan,15,21,11,329,140.0,139.2394179,36.5748441
India,9,16,8,70,33.8,78.6677428,22.3511148
"New Delhi, India",17,6,46,99,57.4,77.2090057,28.6138954
San Francisco,17,6,46,1,18.2,-122.4199061,37.7790262
Algeria,1,1,0,53,21.500000000000004,2.9999825,28.0000272
Vellore,8,8,23,0,9.3,79.0006410968549,12.7948109
Hyderabad,8,8,23,0,9.3,78.46106473453146,17.38878595
"Manchester, UK",8,8,23,0,9.3,-2.2451148,53.4794892
"Toronto, Ontario",0,0,1,4,1.9,-79.3839347,43.6534817
"Berlin, Germany",4,0,10,152,64.60000000000001,13.4025498,52.5015217
Kolkata,2,1,2,0,1.1,88.3567751581234,22.54541245
Delhi,2,1,2,0,1.1,77.1716954,28.6273928
"kathmandu,nepal",8,14,4,104,45.8,85.3205817,27.708317
"Jalgaon,Maharashtra,India",7,9,4,40,19.5,75.52592658756026,20.84351185
Jaipur,1,3,0,30,12.5,75.820349,26.916194
Brazil,1,3,0,35,14.5,-53.2,-10.3333333
pune,3,0,3,16,7.9,73.8544541,18.521428
Chennai,563,44,104,3816,1674.6,80.2838331,13.0801721
Bangalore,2,0,2,0,1.0,77.5912997,12.9791198
"Haldia, West Bengal",5,4,1,199,81.30000000000003,88.0632655,22.028124
Barcelona,1,5,1,269,108.6,2.1774322,41.3828939
greater noida,2,0,0,54,22.0,77.5137649,28.4670734
"Falkirk, Scotland",0,0,2,19,8.200000000000001,-3.749622841384784,56.00205085
India,2,1,2,5,3.1,78.6677428,22.3511148
Dallas,1,1,0,17,7.1000000000000005,-96.7968559,32.7762719
"Pokhara, Nepal",60,31,268,1894,853.1,83.991402,28.209538
India,1,0,1,23,9.7,78.6677428,22.3511148
"Dallas, TX",1,0,1,1,0.9,-96.7968559,32.7762719
RAIPUR,0,3,9,23,12.2,81.6336833,21.2379469
Cape Town,0,0,7,4,3.7,18.417396,-33.928992
"Delhi, India",10,3,31,194,89.2,77.1716954,28.6273928
"Boston, MA",25,12,110,3874,1588.8000000000004,-71.0582912,42.3602534
Montreal,1,0,0,4,1.8,-73.6103642,45.4972159
Faridabad,1,12,1,115,47.7,77.3103837,28.4029786
"Medellin, Colombia",9,7,0,889,358.1,-75.573553,6.2443382
"Kolkata, India",2,1,7,84,36.2,88.3567751581234,22.54541245
Mclean,1,0,6,23,11.2,-88.8196613,40.4631789
"Khulna-9203, Bangladesh",20,7,4,113,51.1,89.563759,22.8171664
London,6,13,9,47,24.0,-0.1276474,51.5073219
"Pune, Maharastra",6,34,2,68,32.40000000000001,73.8544541,18.521428
Bengaluru,18,2,6,125,55.6,77.5912997,12.9791198
Delhi,18,2,6,13,10.8,77.1716954,28.6273928
"Fulda,Germany",2,1,1,7,3.6000000000000005,9.676511,50.5521486
"New York City, NY",0,3,1,46,19.000000000000004,-74.0060152,40.7127281
"Porto Alegre, Brazil",1,3,0,4,2.1,-51.2303767,-30.0324999
"Brasília,DF,Brazil",0,0,1,46,18.700000000000006,-47.8823172,-15.7934036
"Cairo, Egypt",0,0,1,3,1.5000000000000002,31.243666,30.048819
"Mumbai, India",1,1,6,27,12.9,72.8353355,18.9387711
"Connecticut, USA",0,0,1,24,9.900000000000002,-72.7342163,41.6500201
USA,0,0,2,4,2.2,-100.4458825,39.7837304
Kingston,6,6,5,76,33.7,-76.7928128,17.9712148
"Plot No. 7 Sector 24, Near Purkhoti Muktangan, Atal Nagar, Chhattisgarh 493661",0,1,4,18,8.5,,
"Chennai, India",2,5,45,270,122.4,80.2838331,13.0801721
Pune,0,7,0,0,0.7000000000000001,73.8544541,18.521428
"New Delhi,India",1,1,7,12,7.200000000000001,77.2090057,28.6138954
Izmir / Turkey,2,1,0,127,51.3,27.1434119,38.4147331
"Dallas, Texas",0,0,3,0,0.8999999999999999,-96.7968559,32.7762719
"Milpitas, California",1,0,0,8,3.4000000000000004,-121.9066238,37.4282724
Kingston,6,6,5,76,33.7,-76.7928128,17.9712148
"Plot No. 7 Sector 24, Near Purkhoti Muktangan, Atal Nagar, Chhattisgarh 493661",0,1,4,18,8.5,,
"Chennai, India",2,5,45,270,122.4,80.2838331,13.0801721
Greece,2,2,1,33,14.1,21.9877132,38.9953683
"Dhaka,Bangladesh",27,42,61,299,147.5,90.4126466,23.810651
"Türkheim, Germany",14,5,16,831,340.50000000000006,10.6394156,48.0601151
Hyderabad,0,1,2,152,61.50000000000001,78.46106473453146,17.38878595
Bangalore,1,1,1,29,12.2,77.5912997,12.9791198
"Dhaka, Bangladesh",0,3,1,51,21.000000000000004,90.4126466,23.810651
"Bali, Indonesia",25,14,34,134,70.2,115.0906401,-8.3304977
"Boston, MA",2,2,0,35,14.6,-71.0582912,42.3602534
India,15,28,75,982,421.1,78.6677428,22.3511148
Kolkata,0,1,2,52,21.5,88.3567751581234,22.54541245
"Mexico City, Mexico",0,1,2,121,49.10000000000001,-99.1331785,19.4326296
LUDHIANA PUNJAB,5,39,30,21,22.3,75.851601,30.9090157
Noida,5,4,3,182,75.1,77.3910727,28.5356329
Delhi,0,0,2,76,31.000000000000004,77.1716954,28.6273928
Ottawa,2,3,0,248,99.9,-75.690308,45.421106
Vellore,0,0,36,282,123.6,79.0006410968549,12.7948109
India,6,1,0,69,28.9,78.6677428,22.3511148
denton texas,6,1,0,26,11.7,-97.1413417,33.1838787
Kolhapur,6,1,0,86,35.7,74.2405329,16.7028412
İzmir Turkey,2,2,1,6,3.3000000000000007,27.1434119,38.4147331
"Tucson, Arizona",10,15,5,197,83.80000000000003,-110.9748477,32.2228765
Bay Area,5,5,6,522,212.1,-122.3558473,37.7884969
Pittsburgh,0,1,2,59,24.3,-79.9900861,40.4416941
"Cairo, Egypt",5,11,20,86,42.5,31.243666,30.048819
"Mathura, India",5,9,13,76,36.2,77.58715876395613,27.60183935
"Medellin, Colombia",1,1,0,236,94.7,-75.573553,6.2443382
India,0,0,1,67,27.1,78.6677428,22.3511148
"Mumbai, India",0,3,33,26,20.6,72.8353355,18.9387711
Japan,1,0,0,36,14.6,139.2394179,36.5748441
Singapore,1,1,0,18,7.5,103.83039182212079,1.3408630000000001
"Macomb, Illinois",1,1,0,11,4.7,-90.6713939,40.4588934
Chandigarh,2,45,0,40,20.9,76.78414567016054,30.72984395
Delhi,1,6,3,12,6.500000000000001,77.1716954,28.6273928
Pune,1,15,5,22,12.0,73.8544541,18.521428
Germany,1,18,9,36,19.1,10.4234469,51.0834196
"Mumbai, India",3,0,8,134,56.6,72.8353355,18.9387711
"Kolkata,India",14,20,39,187,91.3,88.3567751581234,22.54541245
"Chicago, IL",3,226,7,154,86.9,-87.6244212,41.8755616
Faridabad,3,226,7,25,35.30000000000001,77.3103837,28.4029786
Saudi Arabia,0,1,0,23,9.3,42.3528328,25.6242618
"Bangalore, India",1,1,13,175,74.2,77.5912997,12.9791198
vit vellore,18,13,18,597,249.1,79.16075427896692,12.97229435
Modinagar,2,0,3,125,51.3,77.54165604660876,28.8261624
"San Jose, California",1,0,0,14,5.800000000000002,-121.8905833,37.3361905
"Grand Rapids, Michigan",1,0,1,28,11.7,-85.6678639,42.9632405
Dallas,0,3,14,53,25.700000000000006,-96.7968559,32.7762719
India,0,0,5,235,95.5,78.6677428,22.3511148
New Delhi,0,0,4,30,13.2,77.2090057,28.6138954
Pune,0,0,4,12,6.000000000000001,73.8544541,18.521428
Bangalore,2,1,0,7,3.3000000000000003,77.5912997,12.9791198
Islamabad,5,13,2,92,39.7,73.0651511,33.6938118
Ahmedabad,1,2,10,72,32.2,72.5797068,23.0216238
"Bengaluru,Karnataka",1,2,10,10,7.4,77.5912997,12.9791198
"Delhi,India",0,5,4,54,23.3,77.1716954,28.6273928
Groningen (The Netherlands),20,7,4,277,116.70000000000002,6.5680077,53.2190652
Lagos,1,1,4,714,287.1,3.3941795,6.4550575
Chennai,9,13,3,72,32.8,80.2838331,13.0801721
Singapore,2,0,0,295,118.4,103.83039182212079,1.3408630000000001
New Delhi,0,5,1,33,14.000000000000002,77.2090057,28.6138954
India ,2,9,31,367,157.4,78.6677428,22.3511148
"Nagpur, Maharashtra",2,1,9,445,181.2,79.0820556,21.1498134
Trabzon,3,6,4,78,33.6,39.7180928,41.0058605
Ciudad de México,17,12,3,67,32.3,-99.1331785,19.4326296
Pakistan,29,5,0,93,43.5,71.247499,30.3308401
"Lagos, Nigeria",7,2,1,499,201.50000000000003,3.3941795,6.4550575
Pratapgarh Uttar Pradesh,0,0,1,25,10.3,81.82824248044966,25.87789395
Chennai,1,0,0,81,32.6,80.2838331,13.0801721
Pune,2,5,0,35,14.9,73.8544541,18.521428
"Kanpur,India",9,4,27,1056,432.7000000000001,80.3217588,26.4609135
Pune,3,4,2,33,14.8,73.8544541,18.521428
"Houston, TX",0,1,16,64,30.5,-95.3676974,29.7589382
Pune,1,1,0,53,21.500000000000004,73.8544541,18.521428
"Ballari,Karnataka",7,19,10,12,11.1,76.8323648,15.2485413
Bengaluru,0,6,4,37,16.6,77.5912997,12.9791198
New Delhi,0,6,4,230,93.8,77.2090057,28.6138954
"Seoul, South Korea",22,28,19,545,230.9,126.9782914,37.5666791
visakhapatnam,3,2,0,41,17.200000000000006,83.3012842,17.7231276
Minneapolis,2,2,2,166,67.60000000000001,-93.2654692,44.9772995
Istanbul,5,17,49,183,90.6,28.9651646,41.0096334
Munich,0,0,1,94,37.9,11.5753822,48.1371079
Pakistan,0,0,3,12,5.700000000000001,71.247499,30.3308401
Pune,0,0,9,23,11.9,73.8544541,18.521428
Medellin - Colombia,1,2,6,33,15.4,-75.573553,6.2443382
"Minas Gerais, Brasil",1,2,6,48,21.4,-44.1588654,-18.5264844
Bogota,0,0,7,29,13.7,-74.0760439,4.59808
Sylhet,1,8,8,141,59.8,91.71773617004385,24.59107805
Hyderabad,1,8,8,62,28.2,78.46106473453146,17.38878595
Greater Noida,2,2,0,33,13.8,77.5137649,28.4670734
"Brunswick, Melbourne",2,2,0,25,10.6,144.9613103,-37.7664715
01101001011100100110000101101110 ,1,37,14,440,184.1,,
"Satara, Maharashtra",0,0,3,14,6.5,74.29827807601782,17.63612885
jaipur,0,0,5,56,23.9,75.820349,26.916194
"Muzaffanagar, India",0,0,5,45,19.5,,
"Bebek,Istanbul",0,0,1,11,4.7,29.0439589,41.0790159
"New York, NY",2,9,0,98,40.5,-74.0060152,40.7127281
"Pune,Maharashtra,India",0,1,0,132,52.90000000000001,73.8544541,18.521428
kolkata,7,22,3,426,174.9,88.3567751581234,22.54541245
Ahmedabad,0,0,8,17,9.2,72.5797068,23.0216238
"Dublin, Ireland",3,5,0,53,22.300000000000004,-6.2602732,53.3497645
India,1,1,3,102,42.00000000000001,78.6677428,22.3511148
Berlin,2,7,3,12,6.800000000000002,13.4025498,52.5015217
"Los Angeles, CA",5,5,4,399,162.3,-118.2427666,34.0536909
Colorado,3,19,14,104,48.3,-105.6077167,38.7251776
"San Miguel de Tucuman, Tucuman, Argentina",2,8,25,767,315.5,-65.2038133,-26.8303703
São Paulo,0,0,2,31,13.0,-46.6333824,-23.5506507
London,1,2,0,10,4.4,-0.1276474,51.5073219
Kilimanjaro,1,4,0,5,2.6,37.3539987,-3.0764084
Kolkata,1,4,0,28,11.8,88.3567751581234,22.54541245
Toronto,0,1,0,19,7.7,-79.3839347,43.6534817
"Vijayawada,India",18,5,34,806,336.7000000000001,80.6185102,16.5087586
"Seattle, Washington",2,29,22,140,65.9,-122.3300624,47.6038321
"Lagos, Nigeria",2,0,1,5,2.7,3.3941795,6.4550575
Salem,2,0,1,7,3.5,-123.033121,44.9391565
"Kula Lumpur, Malaysia",2,10,6,89,38.8,103.3270416,3.8045947
Beijing,0,3,0,79,31.9,116.412144,40.190632
sector 35 b chandighar,7,6,45,77,46.3,,
Kolkata,3,5,1,220,89.4,88.3567751581234,22.54541245
Bangalore,1,0,1,50,20.5,77.5912997,12.9791198
"San Francisco, CA",0,0,5,18,8.7,-71.2743272,46.8443248
Cincinnati,1,2,0,74,30.0,-84.5124602,39.1014537
"DELHI, INDIA",0,0,1,30,12.3,77.1716954,28.6273928
"Charlottesville,VA",0,0,10,68,30.200000000000006,-78.4766781,38.029306
"Ilorin, Kwara State",7,2,25,150,69.1,4.5480484,8.4963657
new delhi,6,64,69,259,131.9,77.2090057,28.6138954
"Raipur, India",2,11,10,45,22.5,81.6336833,21.2379469
Pune,1,16,1,105,44.1,73.8544541,18.521428
beijing,4,31,26,5,13.7,116.412144,40.190632
Bangalore,12,60,18,202,94.6,77.5912997,12.9791198
"Kingston, ON Canada",2,11,14,0,5.7,-76.481323,44.230687
Baierbrunn / Germany,2,11,14,23,14.900000000000002,11.4865462,48.0204773
Bangalore,3,24,37,23,23.3,77.5912997,12.9791198
"Lima, Perú",1,2,0,7,3.2,-77.0365256,-12.0621065
"Fredericton, NB Canada",1,2,0,0,0.4,-66.645813,45.966425
Singapore,12,0,51,28,28.9,103.83039182212079,1.3408630000000001
"Swansea, Wales, United Kingdom",14,2,35,1556,635.9000000000002,-3.9459248,51.6195955
Washington,3,2,2,2,2.2,-77.0365581,38.8949924
"Buffalo, NY",2,3,0,0,0.7000000000000001,-78.8783922,42.8867166
London,26,25,9,2,11.2,-0.1276474,51.5073219
glasgow,10,16,11,63,32.1,-4.2488787,55.8609825
Los Angeles,10,16,11,0,6.9,-118.2427666,34.0536909
"Cambridge, MA",1,1,4,13,6.7,-71.1056157,42.3750997
"Boston, MA",39,19,97,323,168.0,-71.0582912,42.3602534
"Bethpage, NY",1,2,1,78,31.9,-73.4838143,40.7432812
Charlotte ,2,33,0,0,3.7,-80.843083,35.2272
Bengaluru,23,0,5,375,156.1,77.5912997,12.9791198
"Shenzhen, Guangdong, China",11,0,57,401,179.7,114.0543297,22.555454
New Delhi,5,24,9,2,6.9,77.2090057,28.6138954
"New Delhi,India",19,26,5,3,9.1,77.2090057,28.6138954
Hyderabad,41,38,61,495,228.3,78.46106473453146,17.38878595
KITALE,2,7,38,36,26.9,35.000236,1.018076
"Ann Arbor, MI",2,0,0,0,0.4,-83.7312291,42.2681569
AK>OR>FRANCE>NY>OR>WA,2,2,4,1,2.2,,
"Earth, North America, U.S., Southwest, New Mexico, Albuquerque ",19,28,36,2,18.2,,
Goa,4,5,26,12,13.9,74.0855134,15.3004543
"Eagan,Minnesota-55123",4,5,26,0,9.1,-93.1659179,44.818173
Germany,2,2,1,27,11.7,10.4234469,51.0834196
India,0,0,1,13,5.5,78.6677428,22.3511148
"Portland, Oregon",18,26,93,198,113.3,-122.6741949,45.5202471
"Shreveport, Louisiana",4,1,3,2,2.6,-93.7651944,32.5221828
Hyderabad ,11,1,1,0,2.6,78.46106473453146,17.38878595
bangalore,11,1,1,1,3.0,77.5912997,12.9791198
"San Francisco, CA",2,4,0,0,0.8,-71.2743272,46.8443248
fuzhou,17,10,47,0,18.5,116.3530413,27.9511188
India,1,7,0,0,0.9000000000000001,78.6677428,22.3511148
"San Luis Potosi, Mexico",10,0,15,62,31.3,-100.5000001,22.5000001
Madrid,20,1,17,796,327.6,-3.7035825,40.4167047
Palestine - gaza,12,15,38,19,22.9,34.3779285,31.4331663
Mumbai,46,6,21,212,100.9,72.8353355,18.9387711
Chittagong,46,6,21,0,16.1,91.8412863,22.3307998
Ghaziabad,4,1,16,92,42.50000000000001,77.4445372,28.711241
"Indore, MP, India",7,7,14,6,8.700000000000001,75.8681996,22.7203616
Ahmedabad,0,1,0,0,0.1,72.5797068,23.0216238
"Sarajevo, Bosnia and Herzegovina",1,0,6,64,27.6,18.3866868,43.8519774
São Paulo,50,4,0,7,13.2,-46.6333824,-23.5506507
Mexico City,1,1,0,0,0.30000000000000004,-99.1331785,19.4326296
"Riyadh, KSA",1,1,0,0,0.30000000000000004,46.7623279,24.7471687
United States ,8,12,18,132,61.0,-100.4458825,39.7837304
Nigeria,9,8,28,1392,567.8000000000002,7.9999721,9.6000359
"Bengaluru, India",15,10,8,13,11.6,77.5912997,12.9791198
"Leicester, UK",2,0,0,2,1.2000000000000002,-1.1330789,52.6361398
New York,1,2,4,14,7.200000000000001,-74.0060152,40.7127281
Lisboa,7,17,4,35,18.3,-9.1365919,38.7077507
"Dhaka, Bangladesh ",0,1,0,285,114.1,90.4126466,23.810651
Hong Kong,1,2,69,8,24.3,114.1849161,22.350627
Salt Lake City,3,0,10,31,16.0,-111.8867975,40.7596198
"Jahangirnagar University, Dhaka, Bangladesh",1,11,0,35,15.3,90.26735168657802,23.882168749999998
"Oxford, UK",44,4,7,25,21.3,-1.2578499,51.7520131
Hyderabad,0,1,0,10,4.1,78.46106473453146,17.38878595
London,30,0,7,80,40.1,-0.1276474,51.5073219
Sydney,1,0,0,5,2.2,151.2164539,-33.8548157
"Providence, RI",9,12,188,96,97.8,-71.4128343,41.8239891
"New York City, USA",4,0,0,3,2.0,-74.0060152,40.7127281
India,8,51,31,109,59.6,78.6677428,22.3511148
"Belfast, United Kingdom",1,0,3,0,1.1,-5.9302761,54.5964411
"Porto, Portugal",11,1,2,59,26.5,-8.6107884,41.1494512
London,30,0,7,80,40.1,-0.1276474,51.5073219
Sydney,1,0,0,5,2.2,151.2164539,-33.8548157
"Irvine, CA",8,87,5,1,12.2,-110.27326,49.9584438
"Jakarta, Indonesia",387,13,24,454,267.5,106.827183,-6.1753942
"Tokyo, Japan",1,2,4,0,1.6,139.7594549,35.6828387
India,6,51,116,199,120.7,78.6677428,22.3511148
Mumbai,17,74,54,8,30.2,72.8353355,18.9387711
"Boston, United States",1,0,0,44,17.8,-71.0582912,42.3602534
Singapore,3,7,3,37,17.0,103.83039182212079,1.3408630000000001
France,3,0,0,0,0.6000000000000001,1.8883335,46.603354
"Dhaka,Bangladesh",3,0,0,0,0.6000000000000001,90.4126466,23.810651
"Wrocław, Poland",9,3,3,585,237.0,17.0326689,51.1089776
Germany,4,4,7,5,5.300000000000002,10.4234469,51.0834196
"Austin, TX",6,11,9,877,355.8,-97.7436995,30.2711286
Bangalore,2,2,0,0,0.6000000000000001,77.5912997,12.9791198
Pune,2,1,27,306,131.0,73.8544541,18.521428
Washington DC,0,1,0,22,8.9,-77.0365581,38.8949924
"Central Luzon, Philippines",0,1,0,0,0.1,120.68569951248944,15.390911849999998
Porto,0,1,3,0,1.0,-8.6107884,41.1494512
United States,3,4,0,211,85.4,-100.4458825,39.7837304
Washington DC,33,54,109,36,59.1,-77.0365581,38.8949924
"Peterborough, UK",33,54,109,0,44.7,-0.2427336,52.5725769
Lyon,2,4,19,12,11.3,4.8320114,45.7578137
Japan,15,21,11,329,140.0,139.2394179,36.5748441
Singapore,12,16,241,1576,706.7,103.83039182212079,1.3408630000000001
Kenya,8,4,8,335,138.4,38.4313975,1.4419683
Berlin,1,0,5,38,16.900000000000002,13.4025498,52.5015217
"Bangalore,Karnataka",16,0,3,139,59.7,77.5912997,12.9791198
India,0,0,6,20,9.8,78.6677428,22.3511148
"Bhubaneswar, India",6,0,0,0,1.2000000000000002,85.8435592,20.2667774
"Nancy, France",52,47,693,100,263.0,6.1834097,48.6937223
"Brisbane, Australia",1,0,0,10,4.2,153.0234991,-27.4689682
"Hawthorne, CA",5,6,49,2538,1031.5,-61.4901355,45.9683338
Coimbatore,1,0,0,0,0.2,76.9628425,11.0018115
"Nagpur ,India",0,1,0,7,2.9000000000000004,79.0820556,21.1498134
UK,0,0,1,38,15.500000000000002,-3.2765753,54.7023545
Dublin,4,8,10,126,55.00000000000001,-6.2602732,53.3497645
San Jose,6,7,1,29,13.8,-121.8905833,37.3361905
"Purok 25 Zone 10, Curvada, Ma. Cristina, Iligan City",0,1,0,46,18.500000000000004,,
Bangalore,0,5,0,8,3.7,77.5912997,12.9791198
Bangalore,19,42,12,157,74.4,77.5912997,12.9791198
Aalborg,19,42,12,0,11.6,9.9215263,57.0462626
Visakhapatnam,0,0,39,306,134.1,83.3012842,17.7231276
"Dhaka, Bangladesh",3,9,5,502,203.8,90.4126466,23.810651
"Dhaka, Bangladesh",18,37,13,105,53.2,90.4126466,23.810651
INDIA,4,20,1,57,25.9,78.6677428,22.3511148
"Santa Clara, CA",14,25,23,93,49.40000000000001,-121.6846349,37.2333253
"Bangalore, India",6,3,76,1,24.7,77.5912997,12.9791198
Delhi,2,1,1,23,10.000000000000002,77.1716954,28.6273928
"Dehradun, Uttarakhand, INDIA",3,6,5,79,34.300000000000004,78.0436813,30.3255646
Knoxville,0,6,17,39,21.3,-83.9210261,35.9603948
Bangalore,1,14,1,37,16.7,77.5912997,12.9791198
"Hyderabad, Telangana",1,14,1,0,1.9,78.46106473453146,17.38878595
"Bongard Center, Tauranga",4,0,0,1,1.2000000000000002,176.1306473,-37.7182845
Bangalore,0,0,11,32,16.1,77.5912997,12.9791198
Pune,3,5,4,76,32.7,73.8544541,18.521428
"Hyderabad, India",2,37,9,202,87.60000000000002,78.46106473453146,17.38878595
Berlin,2,0,0,5,2.4,13.4025498,52.5015217
Brazil,3,1,0,0,0.7000000000000001,-53.2,-10.3333333
Gurugram,0,0,4,29,12.8,77.0299194,28.4646148
"Accra, Ghana ",7,9,4,806,325.9000000000001,-0.2057437,5.5600141
Poland,8,0,29,1021,418.7000000000001,19.134422,52.215933
"Querétaro, MEX",1,0,2,37,15.6,-98.8793023,19.4239301
"Lima, Perú",55,35,255,133,144.2,-77.0365256,-12.0621065
Canada,2,6,0,44,18.6,-107.9917071,61.0666922
Russia,6,5,4,24,12.500000000000002,97.7453061,64.6863136
New York City,3,2,2,154,63.0,-74.0060152,40.7127281
Belgaum,2,4,4,35,16.0,74.5069343,15.8572666
London,3,4,10,3,5.2,-0.1276474,51.5073219
London,1,1,0,63,25.500000000000004,-0.1276474,51.5073219
"Pune,India",1,0,0,69,27.8,73.8544541,18.521428
Bangalore,1,0,0,19,7.800000000000002,77.5912997,12.9791198
Taiwan,2,5,1,40,17.2,120.83536313817521,23.59829785
Bangalore,1,0,4,36,15.8,77.5912997,12.9791198
"Panjab University, Chandigarh",3,4,0,1,1.4,,
San Francisco,1,0,0,0,0.2,-122.4199061,37.7790262
Berlin,1,4,36,394,169.00000000000003,13.4025498,52.5015217
"CLOVIS, CA",0,0,7,71,30.500000000000004,-119.7029194,36.8252277
Taiwan,2,5,1,40,17.2,120.83536313817521,23.59829785
Bangalore,1,0,4,36,15.8,77.5912997,12.9791198
New York,1,0,0,320,128.2,-74.0060152,40.7127281
"Wales, UK",824,2,57,2535,1196.1,-3.73893,52.2928116
Karachi Pakistan,6,4,1,436,176.3,67.0311286,24.8667795
New York,6,4,1,4,3.5,-74.0060152,40.7127281
Ghana,0,2,12,75,33.8,-1.0800271,8.0300284
"Milan, Italy",0,2,12,236,98.2,9.1905,45.4668
"Akwa Ibom, Nigeria",30,34,24,308,139.8,7.8412267,4.9408638
Basque Country,1,0,1,116,46.90000000000001,-1.97383746697463,42.728653050000005
Bangalore,1,0,1,17,7.300000000000002,77.5912997,12.9791198
"Ranchi,India",6,12,17,156,69.9,85.3250132,23.3700354
Bangladesh,1,2,1,65,26.7,90.2932426,24.4768783
"Kathmandu, Nepal",3,6,0,201,81.60000000000002,85.3205817,27.708317
"Vellore, Tamil Nadu",10,15,18,261,113.3,79.0006410968549,12.7948109
"Nairobi,Kenya",22,31,26,198,94.5,36.8172449,-1.2832533
"Auckland, New Zealand",2,1,0,64,26.1,174.7631803,-36.852095
nanded,32,46,38,438,197.6,77.29141237169956,19.17257215
Canada,32,46,38,20,30.4,-107.9917071,61.0666922
delhi,32,46,38,27,33.2,77.1716954,28.6273928
"Denver, CO",32,46,38,25,32.4,-104.9848623,39.7392364
South Korea,5,24,67,350,163.5,127.6961188,36.638392
San Francisco,5,24,67,105,65.5,-122.4199061,37.7790262
"San Francisco, CA",0,7,25,77,39.0,-71.2743272,46.8443248
"Delhi , India",1,8,26,24,18.4,77.1716954,28.6273928
Joypurhat,1,8,26,28,20.0,89.0209157,25.1034476
Canada,1,6,18,74,35.8,-107.9917071,61.0666922
"Banglore,India",0,11,17,189,81.80000000000003,78.8087788,18.3903609
London,2,12,73,143,80.7,-0.1276474,51.5073219
"Bangalore, India",1,18,0,35,16.0,77.5912997,12.9791198
"Pune, India",1,18,0,128,53.2,73.8544541,18.521428
"Charlotte, NC",1,1,1,46,19.000000000000004,-80.843083,35.2272
Gurgaon,5,1,0,18,8.3,77.0299194,28.4646148
"Delhi, India",5,1,0,31,13.5,77.1716954,28.6273928
Pune,1,1,0,18,7.5,73.8544541,18.521428
India,0,0,1,6,2.7,78.6677428,22.3511148
India,1,1,0,43,17.5,78.6677428,22.3511148
"Chicago, IL",0,0,1,20,8.3,-87.6244212,41.8755616
Indore -> Delhi,3,4,0,83,34.2,75.93271052334802,22.7621044
New York,3,4,0,12,5.800000000000002,-74.0060152,40.7127281
"Salem, Tamilnadu, India",2,3,0,23,9.9,78.1602498,11.6612012
Vellore Institute Of Technology,2,2,1,75,30.9,,
India,0,0,1,67,27.1,78.6677428,22.3511148
Austin,8,5,6,1386,558.3,-97.7436995,30.2711286
"Austin, TX",3,1,2,7,4.1000000000000005,-97.7436995,30.2711286
Rio de Janeiro,0,4,5,94,39.5,-43.2093727,-22.9110137
"Houston, Texas",76,0,20,267,128.0,-95.3676974,29.7589382
"Chittagong,Bangladesh",4,0,5,63,27.500000000000004,91.8412863,22.3307998
"Kolkata, India",15,11,62,487,217.5,88.3567751581234,22.54541245
"26.1445° N, 91.7362° E",6,46,32,236,109.8,91.73642556634175,26.1453579
Bengaluru,29,39,78,341,169.5,77.5912997,12.9791198
MUMBAI,29,39,78,5,35.1,72.8353355,18.9387711
"Hyderabad, India",29,39,78,11,37.5,78.46106473453146,17.38878595
New Delhi,1,2,4,82,34.40000000000001,77.2090057,28.6138954
Delhi,0,1,20,56,28.5,77.1716954,28.6273928
Costa Rica,2,1,13,1113,449.6,-84.0739102,10.2735633
Srinagar,0,0,1,34,13.900000000000002,74.8204443,34.0747444
"Bihar, India",2,4,26,388,163.8,85.906508,25.6440845
Monterrey,12,25,9,246,106.0,-100.3152586,25.6802019
San Francisco,12,25,9,8,10.8,-122.4199061,37.7790262
"Dhaka ,Bangladesh",3,0,4,242,98.6,90.4126466,23.810651
Bangalore,0,0,1,32,13.1,77.5912997,12.9791198
Bangalore,4,4,2,102,42.6,77.5912997,12.9791198
Bangalore,4,4,2,20,9.8,77.5912997,12.9791198
New Delhi,5,3,12,242,101.70000000000002,77.2090057,28.6138954
"Ilorin, Kwara State",7,2,25,150,69.1,4.5480484,8.4963657
"Austin, Texas",0,2,0,11,4.6000000000000005,-97.7436995,30.2711286
Bangalore,4,21,7,118,52.2,77.5912997,12.9791198
Sri Lanka,176,0,94,90,99.4,80.7137847,7.5554942
India,1,1,4,25,11.5,78.6677428,22.3511148
Brazil,4,3,26,200,88.9,-53.2,-10.3333333
Faridabad,1,12,1,115,47.7,77.3103837,28.4029786
jaipur,2,0,1,241,97.1,75.820349,26.916194
"Houston, TX",8,26,3,721,293.50000000000006,-95.3676974,29.7589382
Erlangen,10,15,12,807,329.9000000000001,11.003645,49.5981187
India,9,13,93,1523,640.2,78.6677428,22.3511148
"Khulna, Bangladesh",1,0,0,25,10.2,89.44492672055918,22.815139549999998
EGYPT,13,9,9,52,27.0,29.2675469,26.2540493
Gurugram,0,1,0,115,46.1,77.0299194,28.4646148
Mumbai.Maharashtra,0,0,1,24,9.900000000000002,72.8353355,18.9387711
"Roorkee, Uttarakhand",1,1,3,55,23.2,77.8902124,29.8693496
Tuticorin,4,8,31,474,200.50000000000003,78.1452745,8.8052602
New Delhi,2,26,48,91,53.8,77.2090057,28.6138954
Seoul Korea,2,12,24,418,176.00000000000003,126.9782914,37.5666791
"Nagpur , Maharashtra",7,7,1,172,71.2,79.0820556,21.1498134
Poland,1,1,0,80,32.3,19.134422,52.215933
"New York, NY",5,9,0,124,51.5,-74.0060152,40.7127281
Aligarh,10,22,44,204,99.0,78.13729027600994,27.87698975
"Kolkata, West Bengal, India",2,2,13,129,56.1,88.3567751581234,22.54541245
Hyderabad,0,1,0,111,44.50000000000001,78.46106473453146,17.38878595
"Niterói, RJ",0,0,1,58,23.500000000000004,-43.1154552,-22.8832371
"Cracow, Poland",1,1,2,35,14.9,19.9371393,50.0606742
Odisha,6,8,12,517,212.4,84.6897321,20.5431241
"São Paulo, Brasil",6,3,2,70,30.1,-46.6333824,-23.5506507
"New Delhi, India",6,3,2,39,17.700000000000006,77.2090057,28.6138954
kakinada,2,2,2,30,13.2,82.2350607,16.9437385
Visakhapatnam,2,2,2,56,23.6,83.3012842,17.7231276
"Waterloo, Ontario, Canada",17,13,71,71,54.40000000000001,-80.524635,43.466874
PUNE,2,6,24,148,67.4,73.8544541,18.521428
Colima Mexico,7,5,7,93,41.2,-104.0,19.166667
"Seattle, WA",12,16,4,19,12.8,-122.3300624,47.6038321
Bengaluru,0,3,0,46,18.700000000000006,77.5912997,12.9791198
"Botucatu, SP, Brazil",0,7,1,62,25.8,-48.4410712,-22.8879628
Nilai,0,7,1,3,2.2,101.7995057,2.8022628
Lisbon,35,64,69,330,166.1,-9.1365919,38.7077507
B.Tech Final Year Student,1,5,0,41,17.1,,
Saudi Arabia,1,5,0,11,5.1000000000000005,42.3528328,25.6242618
Malang,1,0,0,35,14.2,112.68798721390587,-8.10479815
Malang,1,0,0,35,14.2,112.68798721390587,-8.10479815
"São Paulo, Brazil",1,0,0,222,89.00000000000001,-46.6333824,-23.5506507
Nellore,1,0,0,3,1.4,79.9873763,14.4493717
"Vidisha, Madhya Pradesh",1,2,2,39,16.6,78.0,23.916667
"Vista, Ca",1,2,2,50,21.0,-100.7196973,50.6244465
egypit,1,2,2,18,8.2,,
India,0,3,0,33,13.500000000000002,78.6677428,22.3511148
"Dhaka, Bangladesh",8,0,0,44,19.200000000000006,90.4126466,23.810651
Bangalore,2,3,0,24,10.3,77.5912997,12.9791198
"Bogor, Indonesia",2,1,0,19,8.100000000000001,106.7972421,-6.5962986
Mumbai,1,3,1,50,20.8,72.8353355,18.9387711
"Jeddah, SA",9,4,3,3,4.300000000000002,39.1653612,21.5810088
Bengaluru,0,0,5,46,19.9,77.5912997,12.9791198
London,3,5,9,279,115.4,-0.1276474,51.5073219
Tuticorin,4,8,31,471,199.3,78.1452745,8.8052602
"Sunrise, FL",1,1,6,366,148.5,-80.32888594100868,26.1482449
Hyderabad,1,1,6,3,3.3,78.46106473453146,17.38878595
Hyderabad,4,0,1,19,8.700000000000001,78.46106473453146,17.38878595
Russas,13,11,11,196,85.4,-37.9783838,-4.9354279
Madrid,80,10,33,45,44.9,-3.7035825,40.4167047
Hamburg/ Germany ,1,1,1,13,5.800000000000002,10.000654,53.550341
"Bhaktapur,Nepal",1,5,4,4,3.5,85.428171,27.6720657
"Boston, Massachusetts",14,12,19,0,9.7,-71.0582912,42.3602534
Madrid,19,45,878,15,277.7,-3.7035825,40.4167047
"Chicago, IL",4,5,9,7,6.800000000000002,-87.6244212,41.8755616
Stanford,1,0,0,0,0.2,-122.17029258409187,37.426540700000004
"Columbus, Ohio",1,1,4,16,7.9,-83.0007065,39.9622601
"Warsaw, Poland",6,3,9,112,49.00000000000001,21.0067249,52.2319581
"Clemson, SC",3,5,12,1,5.1,-82.8364111,34.6850749
Gainesville,1,0,0,8,3.4000000000000004,-82.3249846,29.6519684
Colombo - Sri Lanka,7,19,109,57,58.8,79.8538463,6.9349969
Saaaaan Francisco San Francisco San Francisco,7,19,109,0,35.99999999999999,,
Istanbul / TURKEY,0,0,1,20,8.3,28.9651646,41.0096334
delhi,0,0,1,2,1.1,77.1716954,28.6273928
São Paulo - Brasil,0,0,1,0,0.3,-46.6333824,-23.5506507
Singapore,1,0,11,0,3.5,103.83039182212079,1.3408630000000001
India,0,0,2,0,0.6,78.6677428,22.3511148
Mumbai,0,4,6,8,5.4,72.8353355,18.9387711
"Missoula, MT",0,4,6,0,2.2,-113.9952672,46.8701049
"Huntington Beach, CA",96,38,153,1253,570.1,-118.0000166,33.6783336
"4913 Rufe Snow Dr, Ste 101A North Richland HIlls, TX 76180",96,38,153,0,68.9,,
Utah,15,8,95,47,51.1,-111.7143584,39.4225192
New York,1,8,0,2,1.8,-74.0060152,40.7127281
"Vadodara, India",3,5,10,1296,522.5,73.1942567,22.2973142
India,7,8,21,86,42.9,78.6677428,22.3511148
India,0,0,2,0,0.6,78.6677428,22.3511148
Ireland,0,0,2,0,0.6,-7.9794599,52.865196
India,13,12,6,917,372.4,78.6677428,22.3511148
Spain,0,0,1,5,2.3,-4.8380649,39.3262345
"Seattle, WA",10,4,10,217,92.20000000000002,-122.3300624,47.6038321
AK>OR>FRANCE>NY>OR>WA,2,2,4,1,2.2,,
Nagpur,12,8,2,17,10.6,79.0820556,21.1498134
italy,4,2,10,0,4.0,12.674297,42.6384261
India,0,0,2,0,0.6,78.6677428,22.3511148
New Delhi,1,0,2,0,0.8,77.2090057,28.6138954
"Seattle, WA",95,7,73,189,117.2,-122.3300624,47.6038321
Bangalore,95,7,73,0,41.6,77.5912997,12.9791198
Berlin,12,8,569,0,173.89999999999995,13.4025498,52.5015217
Switzerland,1,0,0,7,3.0000000000000004,8.2319736,46.7985624
"Seattle, WA",60,62,507,36,184.7,-122.3300624,47.6038321
"Leeds, West Riding, UK",29,0,4,1073,436.2000000000001,-0.1952885,54.0813547
istanbul,7,9,25,49,29.4,28.9651646,41.0096334
127.0.0.1,25,296,2000,478,825.8000000000002,-109.0482215,38.7022309
Tromsø,2,3,6,210,86.5,18.9543434,69.649208
China,0,9,48,3,16.5,104.999927,35.000074
"Chicago, IL",3,11,31,10,15.0,-87.6244212,41.8755616
"Chennai, Tamilnadu, India",10,76,0,12,14.400000000000002,80.2838331,13.0801721
New Jersey,0,1,0,0,0.1,-74.4041622,40.0757384
India,39,73,22,79,53.3,78.6677428,22.3511148
London,1,6,1,104,42.7,-0.1276474,51.5073219
mumbai,1,6,1,0,1.1,72.8353355,18.9387711
Germany,5,0,2,56,24.000000000000004,10.4234469,51.0834196
"Cairo,Alexandria",9,91,42,1,23.9,29.82774415,30.9693218
"Pune , Maharastra",4,9,18,0,7.1,73.8544541,18.521428
Berlin,33,63,58,488,225.50000000000003,13.4025498,52.5015217
Hong kong,33,63,58,3,31.5,114.1849161,22.350627
"Athens, Greece",33,63,58,17,37.1,23.7283052,37.9839412
"Copenhagen, Denmark",11,55,326,1052,526.3,12.5700724,55.6867243
"New York, NY",1,0,1,0,0.5,-74.0060152,40.7127281
"Wales, UK",824,2,57,2534,1195.7,-3.73893,52.2928116
"Los Angeles, California",2,2,1,11,5.300000000000002,-118.2427666,34.0536909
"Boston, United States",1,18,1,0,2.3,-71.0582912,42.3602534
"Los Angeles, CA",2,1,0,11,4.9,-118.2427666,34.0536909
"madison, wi, us",0,2,4,0,1.4,-89.3837613,43.074761
"Delhi, India",27,81,46,126,77.7,77.1716954,28.6273928
"Fullerton, CA, USA",2,0,1,10,4.7,-117.9294165,33.8708215
"Orlando, FL, USA",8,5,7,1,4.6000000000000005,-81.3790304,28.5421109
"Berkhamsted, United Kingdom",8,5,7,2,5.0,-0.5557681023902674,51.75514375
India,0,0,2,0,0.6,78.6677428,22.3511148
Pittsburgh,0,0,2,0,0.6,-79.9900861,40.4416941
"New Delhi, India",2,1,0,8,3.7,77.2090057,28.6138954
"New Delhi, India",2,2,2,11,5.6000000000000005,77.2090057,28.6138954
"Cambridge, United Kingdom",2,2,2,1,1.6,0.1235817,52.2034823
india,0,1,0,0,0.1,78.6677428,22.3511148
İstanbul,0,1,0,0,0.1,28.9651646,41.0096334
Mumbai,17,74,54,8,30.2,72.8353355,18.9387711
Tijuana B.C mexico,10,8,18,152,69.0,-116.9646629,32.5010188
"New York, NY",5,0,6,318,130.0,-74.0060152,40.7127281
Fairfield CT,4,2,1,19,8.9,-72.595117,41.712195
"Nairobi, Kenya",35,25,69,347,169.0,36.8172449,-1.2832533
Washington DC,2,1,0,3,1.7000000000000002,-77.0365581,38.8949924
"Pune, India",25,109,1200,0,375.9,73.8544541,18.521428
Kenya,111,63,82,40,69.1,38.4313975,1.4419683
"Razole ,East Godavari, Andhra Pradesh",111,63,82,189,128.70000000000002,81.86157873328145,16.462868299999997
China,6,12,59,1362,564.9000000000002,104.999927,35.000074
Bangalore,3,1,0,2,1.5,77.5912997,12.9791198
Munich,3,1,0,1,1.1,11.5753822,48.1371079
"Taunggyi, Myanmar",16,2,74,165,91.6,97.0364294,20.7907874
Noida,4,8,16,185,80.4,77.3910727,28.5356329
Germany,2,0,0,181,72.80000000000003,10.4234469,51.0834196
"Mumbai, India",3,5,1,0,1.4,72.8353355,18.9387711
Dhanbad,12,28,23,109,55.7,86.4309638,23.7952809
USA,4,4,6,3,4.2,-100.4458825,39.7837304
India,1,2,0,0,0.4,78.6677428,22.3511148
"Montreal, QC",2,0,0,0,0.4,-73.6103642,45.4972159
Boston,2,0,0,0,0.4,-71.0582912,42.3602534
"30 Finderne Ave, Bridgewater, NJ 08807",0,0,5,70,29.5,-74.579234,40.561702
Bangalore,0,3,1,3,1.8000000000000005,77.5912997,12.9791198
"Peru, Lima",24,36,57,261,129.9,-77.0365256,-12.0621065
"Austin, TX",10,7,8,476,195.5,-97.7436995,30.2711286
Gurgaon,20,37,14,42,28.700000000000006,77.0299194,28.4646148
"Nagpur ,India",0,1,0,7,2.9000000000000004,79.0820556,21.1498134
Dhaka,1,3,11,78,35.0,90.4126466,23.810651
"Purwokerto, Indonesia",9,14,43,231,108.5,112.17989315068222,-7.31924965
Pakistan,145,4,32,754,340.6,71.247499,30.3308401
Brazil,8,7,44,23,24.700000000000006,-53.2,-10.3333333
London. United Kindom,8,7,44,28,26.700000000000006,,
Chennai,6,14,4,49,23.4,80.2838331,13.0801721
"New Delhi, India",2,0,22,226,97.4,77.2090057,28.6138954
Pune,0,2,2,17,7.6,73.8544541,18.521428
"London, United Kingdom",0,2,2,0,0.8,-0.1276474,51.5073219
Australia,3,3,1,0,1.2000000000000002,134.755,-24.7761086
Boston,0,1,0,17,6.9,-71.0582912,42.3602534
seoul,1,0,10,75,33.2,126.9782914,37.5666791
Bangalore,1,0,10,17,10.0,77.5912997,12.9791198
"Bergen, Norway",35,61,295,24,111.2,5.3259192,60.3943055
"Canada, Edmonton,AB",1,6,15,13,10.5,-113.507996,53.535411
"Rio Grande do Sul, Brazil",1,6,15,33,18.5,-53.7680577,-29.8425284
"Boston, MA",1,0,2,193,78.0,-71.0582912,42.3602534
"Denver, CO",7,1,3,605,244.4,-104.9848623,39.7392364
Bangalore,2,7,2,47,20.5,77.5912997,12.9791198
Bangalore,2,7,2,0,1.7000000000000002,77.5912997,12.9791198
"Chennai,India.",19,4,8,91,43.0,80.2838331,13.0801721
"Boston, MA",2,0,0,22,9.2,-71.0582912,42.3602534
salem,1,42,0,9,8.0,-123.033121,44.9391565
"Bangalore, India",4,0,14,67,31.8,77.5912997,12.9791198
"Gwalior, M.P. (India)",2,5,0,54,22.5,78.1573628,26.2037247
"Mérida, México",2,5,0,10,4.9,-89.6237402,20.9670759
Gliwice,8,11,0,32,15.5,18.662347227971978,50.30113145
Bengaluru,0,4,0,152,61.2,77.5912997,12.9791198
"Lagos, Nigeria",15,19,2,426,175.9,3.3941795,6.4550575
"Ottawa, Canada",15,19,2,4,7.1,-75.690308,45.421106
"Pudong District, Shanghai, China",1,0,0,2,1.0,121.5387401,31.2217826
"Saudi Arabia, Hail ",2,4,0,6,3.2,41.4892578,26.9920987
"Nairobi, Kenya",2,1,1,62,25.6,36.8172449,-1.2832533
"San Francisco, California",0,5,4,47,20.5,-122.4199061,37.7790262
"Wroclaw, Poland",2,5,13,135,58.8,17.0326689,51.1089776
Oslo,0,6,4,15,7.8,10.775729194051895,59.97239745
"Milan,Italy",14,4,28,101,52.00000000000001,9.1905,45.4668
"London, UK",1,0,0,2,1.0,-0.1276474,51.5073219
Poland Częstochowa,1,0,0,73,29.4,19.113213,50.8120466
"Indianapolis, Indiana, United States of America",1,0,0,0,0.2,-86.1583502,39.7683331
"Ukraine, Lviv",13,14,0,260,108.0,24.0315921,49.841952
"Indianapolis,USA",3,1,0,0,0.7000000000000001,-86.1583502,39.7683331
"Berlin, Germany",4,56,461,6,147.1,13.4025498,52.5015217
Oslo,0,6,4,15,7.8,10.775729194051895,59.97239745
"Bratislava, Slovakia",7,10,16,1021,415.6,17.1093063,48.1516988
United States,4,18,7,161,69.10000000000001,-100.4458825,39.7837304
Hyderabad,1,10,4,88,37.6,78.46106473453146,17.38878595
"Montevideo, Uruguay",0,0,1,7,3.1,-56.1913569,-34.9059039
Morocco,0,2,0,22,9.0,-7.3362482,31.1728205
Bengaluru,21,14,1,228,97.1,77.5912997,12.9791198
India,10,4,0,55,24.4,78.6677428,22.3511148
Paris,10,4,0,22,11.2,2.3514616,48.8566969
India,1,3,0,57,23.3,78.6677428,22.3511148
"Lynwood, Washington",7,9,7,10,8.4,-122.5473572,47.6045411
"Ohio, United States",1,1,1,9,4.2,-82.6881395,40.2253569
Mumbai,2,3,9,371,151.8,72.8353355,18.9387711
Hyderabad,4,14,0,57,25.0,78.46106473453146,17.38878595
Denmark,0,1,1,132,53.2,10.3333283,55.670249
India,4,17,2,637,257.90000000000003,78.6677428,22.3511148
"Electronic City, Phase-2, Bengaluru",2,6,1,31,13.7,77.53097627999,13.037227099999999
Bangalore,1,20,0,48,21.4,77.5912997,12.9791198
New Delhi,5,20,0,264,108.6,77.2090057,28.6138954
Kurunegala,7,7,1,9,6.0,80.364908,7.4870464
"Sydney, Australia",0,2,0,59,23.8,151.2164539,-33.8548157
India,0,2,0,113,45.40000000000001,78.6677428,22.3511148
Norway,0,0,31,57,32.1,9.0999715,60.5000209
India,0,2,4,59,25.0,78.6677428,22.3511148
Bangalore,0,7,5,20,10.2,77.5912997,12.9791198
"Atlanta, GA",0,1,0,89,35.7,-84.3901849,33.7490987
Dehradun,3,2,0,167,67.6,78.0436813,30.3255646
"Boston, USA",0,1,0,6,2.5000000000000004,-71.0582912,42.3602534
"San Francisco, CA",0,2,0,77,31.0,-71.2743272,46.8443248
"Haryana,India",82,82,219,856,432.7000000000001,76.0,29.0
Dallas,4,15,8,116,51.10000000000001,-96.7968559,32.7762719
"San Francisco, United States",30,2,68,617,273.40000000000003,-122.4199061,37.7790262
São Paulo - Brasil,8,44,5,105,49.5,-46.6333824,-23.5506507
Aligarh,8,44,5,23,16.700000000000006,78.13729027600994,27.87698975
Lucknow,3,15,30,49,30.700000000000006,80.9346001,26.8381
"Dhalamsala, India",1,10,3,59,25.700000000000006,,
Hyderabad,0,2,1,28,11.7,78.46106473453146,17.38878595
Los Angeles,0,0,1,68,27.500000000000004,-118.2427666,34.0536909
Pune,0,16,0,124,51.2,73.8544541,18.521428
"Bhubhaneswar, India",23,12,46,214,105.20000000000002,,
"HO, Tx.",1,1,0,81,32.7,-99.5120986,31.8160381
Mumbai,11,25,84,619,277.5,72.8353355,18.9387711
"Surat,Gujarat,India",0,3,17,97,44.2,72.8081281,21.1864607
"Tiruppur, india",2,13,1,133,55.2,77.345192,11.1017815
Fortaleza - CE,1,7,0,21,9.3,-38.5217989,-3.7304512
India,1,7,0,168,68.10000000000001,78.6677428,22.3511148
India,1,7,0,5,2.9000000000000004,78.6677428,22.3511148
new delhi,8,16,9,289,121.5,77.2090057,28.6138954
Denmark,4,6,3,140,58.3,10.3333283,55.670249
Mumbai,1,2,0,114,46.0,72.8353355,18.9387711
Pune,1,2,0,227,91.20000000000002,73.8544541,18.521428
Singapore,0,0,7,123,51.3,103.83039182212079,1.3408630000000001
Hyderabad,0,1,1,51,20.8,78.46106473453146,17.38878595
Greece,2,3,0,2,1.5,21.9877132,38.9953683
"Eugene, OR",5,5,14,16,12.1,-123.0950506,44.0505054
London,5,5,14,5,7.7,-0.1276474,51.5073219
Kupwara kashmir,3,49,8,233,101.1,74.238478667319,34.611023599999996
Kolkata,6,5,8,318,131.3,88.3567751581234,22.54541245
Bangalore,3,0,9,263,108.5,77.5912997,12.9791198
jaipur,3,0,9,27,14.1,75.820349,26.916194
Mumbai-India,3,0,9,47,22.1,72.8353355,18.9387711
"Karachi, Pakistan",19,123,0,41,32.5,67.0311286,24.8667795
Toronto ,4,5,0,62,26.1,-79.3839347,43.6534817
Malaysia,0,1,2,89,36.3,102.2656823,4.5693754
Pune,22,4,0,69,32.40000000000001,73.8544541,18.521428
Hyderabad,2,0,2,199,80.60000000000002,78.46106473453146,17.38878595
Netherland,26,17,17,118,59.2,121.0501142,14.3516387
Minneapolis,2,2,2,166,67.60000000000001,-93.2654692,44.9772995
Dubai,1,19,51,391,173.8,55.18876088183319,25.0750095
United Kingdom,32,13,10,159,74.3,-3.2765753,54.7023545
Pune,1,3,1,81,33.2,73.8544541,18.521428
Mumbai,1,1,12,26,14.3,72.8353355,18.9387711
"Pune,India",1,1,12,17,10.7,73.8544541,18.521428
Kolkata,2,3,7,64,28.4,88.3567751581234,22.54541245
Piscataway NJ,8,12,20,667,275.6,-74.4660408,40.5462553
Malaysia,0,0,3,46,19.3,102.2656823,4.5693754
"Nagpur, Maharashtra, India",1,2,0,35,14.4,79.0820556,21.1498134
Hyderabad,2,0,2,199,80.60000000000002,78.46106473453146,17.38878595
Delhi,0,1,0,131,52.50000000000001,77.1716954,28.6273928
"Kathmandu, Nepal",1,1,0,5,2.3,85.3205817,27.708317
Bengaluru,5,18,104,160,98.0,77.5912997,12.9791198
Greater Noida,5,18,104,89,69.6,77.5137649,28.4670734
Jakarta - Indonesia,0,1,0,24,9.7,106.827183,-6.1753942
"Vail, CO",0,1,0,87,34.90000000000001,-106.3801669,39.6440207
Hungary,1,1,5,4,3.4000000000000004,19.5060937,47.1817585
INDIA,0,1,1,39,16.0,78.6677428,22.3511148
Mumbai,13,71,168,490,256.1,72.8353355,18.9387711
Hyderabad,2,0,0,85,34.4,78.46106473453146,17.38878595
B.Tech Final Year Student,1,6,0,67,27.6,,
Oakland,1,6,0,85,34.8,-122.2713563,37.8044557
"Aalborg, Denmark",2,3,0,79,32.300000000000004,9.9215263,57.0462626
Hyderabad,2,3,0,15,6.7,78.46106473453146,17.38878595
India,9,16,40,383,168.60000000000005,78.6677428,22.3511148
New Delhi,0,0,4,41,17.6,77.2090057,28.6138954
Pune,0,0,4,399,160.8,73.8544541,18.521428
Bangalore,1,5,1,79,32.6,77.5912997,12.9791198
Yogyakarta,6,8,1,38,17.5,110.364917,-7.8011945
"Kolkata , West Bengal",5,3,2,57,24.7,88.3567751581234,22.54541245
"Jaipur, Rajasthan, India",2,1,4,134,55.3,75.820349,26.916194
India,14,23,748,321,357.9,78.6677428,22.3511148
Beijing,0,3,0,79,31.9,116.412144,40.190632
New Delhi,0,13,2,32,14.7,77.2090057,28.6138954
"Los Angeles, CA",0,13,2,100,41.9,-118.2427666,34.0536909
"California, USA",7,14,37,196,92.3,-118.7559974,36.7014631
"Chennai,India",3,14,1,55,24.3,80.2838331,13.0801721
Pakistan,29,5,0,93,43.5,71.247499,30.3308401
India,2,14,0,53,23.000000000000004,78.6677428,22.3511148
Chennai/Dublin,24,3,37,833,349.4000000000001,80.2494744,13.0295106
"Austin, Texas USA",1,0,0,0,0.2,-97.7436995,30.2711286
"Lisbon, Portugal",8,10,5,0,4.1,-9.1365919,38.7077507
United Kingdom,1,0,0,0,0.2,-3.2765753,54.7023545
India,0,0,24,0,7.199999999999998,78.6677428,22.3511148
"Great Rift Valley, Kenya",49,63,118,104,93.1,36.6008833,-1.0667201
"NC, USA",1,0,2,0,0.8,-79.0392919,35.6729639
"Cuiabá, MT",27,13,4,74,37.5,-56.0991301,-15.5986686
Karachi,67,546,567,5,240.1,67.0311286,24.8667795
DELHI,1,0,0,22,9.0,77.1716954,28.6273928
israel,5,19,41,1,15.6,34.8667654,31.5313113
"San Francisco, CA",7,1,2,5,4.1,-71.2743272,46.8443248
India,4,2,1,5,3.3,78.6677428,22.3511148
"Seattle, WA",18,15,43,555,240.0,-122.3300624,47.6038321
California,18,15,43,0,18.0,-118.7559974,36.7014631
Ottawa / Cairo,3,6,15,443,182.9,-84.0916509,40.8296693
Delhi,5,7,0,542,218.5,77.1716954,28.6273928
"Tampa, Florida",5,7,0,0,1.7000000000000002,-82.458444,27.9477595
Chile,19,4,38,18,22.8,-71.3187697,-31.7613365
Heidelberg,0,2,2,0,0.8,8.694724,49.4093582
Illinois,5,14,5,0,3.9,-89.4337288,40.0796606
Mexico,215,8,9,553,267.70000000000005,-100.0000375,22.5000485
Dallas,215,8,9,0,46.5,-96.7968559,32.7762719
"Philadelphia, PA",215,8,9,0,46.5,-75.1635262,39.9527237
"chennai,TN,India",3,5,3,10,6.0,80.2838331,13.0801721
"Stony Brook, New York",1,6,24,0,7.999999999999999,-73.13960360056436,40.9087015
hyderabad,3,0,2,0,1.2000000000000002,78.46106473453146,17.38878595
Pune,0,13,1,0,1.6,73.8544541,18.521428
China Shanghai,0,2,2,9,4.4,121.4692071,31.2322758
Delhi,12,5,28,0,11.3,77.1716954,28.6273928
"Tempe, Arizona",10,30,122,0,41.6,-111.9400125,33.4255056
Racine,3,4,1,0,1.3,-87.7825242,42.7260523
"Toronto, Canada",42,84,1500,496,665.2,-79.3839347,43.6534817
"New York, NY",1,0,0,3,1.4,-74.0060152,40.7127281
"Jakarta, Indonesia",26,42,103,2,41.1,106.827183,-6.1753942
Bangalore India,26,42,103,0,40.3,77.5912997,12.9791198
"Seattle, WA",95,7,73,189,117.2,-122.3300624,47.6038321
"Anantapur,Andhrapradesh",33,5,41,277,130.20000000000002,,
"New York, NY",2,16,18,17,14.2,-74.0060152,40.7127281
Hyderabad,8,3,0,0,1.9,78.46106473453146,17.38878595
Maringá - Paraná - BR,3,2,5,0,2.3,-51.9382078,-23.425269
"Philadelphia, PA",11,16,107,18,43.1,-75.1635262,39.9527237
"Dallas,Texas",2,47,24,0,12.3,-96.7968559,32.7762719
Banglore,14,111,6,3,16.900000000000002,79.5715088,18.0056901
Mumbai,4,14,200,0,62.2,72.8353355,18.9387711
San Francisco Bay Area,5,13,15,23,16.0,-122.3558473,37.7884969
Kyiv,2,1,0,36,14.9,30.5241361,50.4500336
"Bangalore, India",17,20,35,485,209.9,77.5912997,12.9791198
Bangalore,0,1,1,7,3.2,77.5912997,12.9791198
"Ontario, Canada",0,1,0,13,5.3,-86.000977,50.000678
Argentina,5,13,6,348,143.3,-64.9672817,-34.9964963
"Southbury, CT",0,5,0,0,0.5,-73.2131693,41.4814848
"Paris, France",29,6,8,15,14.8,2.3514616,48.8566969
São Paulo,0,1,0,0,0.1,-46.6333824,-23.5506507
"89 Bir Uttam CR Datta Road, Dhaka, 1205, Bangladesh",1,0,1,3,1.7000000000000002,90.3920197,23.7426653
Hyderabad,1,0,1,3,1.7000000000000002,78.46106473453146,17.38878595
NIT HAMIRPUR,8,2,4,4,4.6,76.5228147,31.7017559
Los Angeles,6,7,21,42,25.0,-118.2427666,34.0536909
"Francavilla Fontana (BR), Italy",6,7,21,0,8.2,17.5826774,40.5301622
"Lagos, Nigeria",7,9,2,123,52.1,3.3941795,6.4550575
"Mesa, AZ, USA",2,2,0,2,1.4,-111.8314773,33.4151117
Delhi,1,3,1,17,7.6,77.1716954,28.6273928
Bangalore,1,3,1,0,0.8,77.5912997,12.9791198
"Dublin, Ireland",4,4,4,1,2.8000000000000003,-6.2602732,53.3497645
Ireland,1,4,0,26,11.0,-7.9794599,52.865196
Hyderabad,7,16,29,0,11.7,78.46106473453146,17.38878595
Bangalore,7,16,29,0,11.7,77.5912997,12.9791198
Mbarara,12,14,2,1,4.800000000000002,30.63412741499534,-0.52283825
mumbai,12,14,2,0,4.4,72.8353355,18.9387711
New delhi,23,73,87,106,80.4,77.2090057,28.6138954
Paris,3,8,11,80,36.7,2.3514616,48.8566969
Trivandrum,4,9,4,99,42.5,76.9360573,8.5241122
"Calgary, Canada",3,3,2,15,7.5,-114.0625892,51.0534234
"Dhaka,Bangladesh",62,1,19,46,36.6,90.4126466,23.810651
"Houston, TX",62,1,19,3,19.4,-95.3676974,29.7589382
"Wageningen, The Netherlands",0,3,1,158,63.8,5.6636754,51.9750995
Germany,3,4,0,0,1.0,10.4234469,51.0834196
"Lagos, Nigeria",11,18,64,78,54.40000000000001,3.3941795,6.4550575
Montreal,4,4,3,56,24.500000000000004,-73.6103642,45.4972159
Dehradun,7,2,16,155,68.4,78.0436813,30.3255646
"Jaipur, Rajasthan",26,14,31,117,62.7,75.820349,26.916194
"Mumbai, India",1,1,0,3,1.5000000000000002,72.8353355,18.9387711
"Vienna, Austria",7,11,6,384,157.90000000000003,16.3725042,48.2083537
"Dhaka, Bangladesh",3,3,0,2,1.7000000000000002,90.4126466,23.810651
"New York, NY",4,10,3,16,9.1,-74.0060152,40.7127281
"Tokyo, Japan",4,0,3,55,23.7,139.7594549,35.6828387
"Dhaka, Bangladesh",4,0,3,0,1.7,90.4126466,23.810651
Melbourne,1,1,1,24,10.2,144.9631608,-37.8142176
Greater Noida,146,0,0,105,71.2,77.5137649,28.4670734
"Kampala, Uganda",4,1,1,334,134.79999999999998,32.5813539,0.3177137
"Kirkel-Altstadt, Germany",6,1,78,308,147.9,7.2333295,49.2833031
"Aachen, Germany",5,18,3,57,26.5,6.083862,50.776351
"new delhi, india",1,4,0,21,9.0,77.2090057,28.6138954
"Amman, Jordan",9,8,42,109,58.8,35.9239625,31.9515694
Houston Texas,2,0,0,24,10.000000000000002,-95.3676974,29.7589382
"Nairobi,Kenya",56,49,10,193,96.3,36.8172449,-1.2832533
"Zhytomyr, Ukraine",0,1,4,167,68.1,28.6692345,50.2598298
"Zhytomyr, Ukraine",0,1,4,167,68.1,28.6692345,50.2598298
"Washington, DC",1,0,6,18,9.2,-77.0365581,38.8949924
Delhi,16,15,10,210,91.7,77.1716954,28.6273928
"Sarpsborg, Norway",0,1,1,8,3.6,11.1097,59.2838833
Philippines,7,10,1,1,3.1,122.7312101,12.7503486
Mumbai,2,0,0,25,10.4,72.8353355,18.9387711
NEW DELHI,15,13,56,344,158.7,77.2090057,28.6138954
Singapore,3,4,26,32,21.6,103.83039182212079,1.3408630000000001
"Nairobi ,Kenya",1,1,1,4,2.2,36.8172449,-1.2832533
"Dhaka, Bangladesh",0,1,0,26,10.5,90.4126466,23.810651
Neiva - Huila,1,1,1,273,109.8,-75.2891733,2.9263127
"Detroit, USA",5,2,0,7,4.0,-83.0466403,42.3315509
"Sari, Iran",0,14,7,4,5.1,53.0587229,36.5659598
Russia,3,9,1,105,43.8,97.7453061,64.6863136
India,0,1,8,192,79.30000000000003,78.6677428,22.3511148
Houston,7,12,3,161,67.9,-95.3676974,29.7589382
"Palo Alto, California",7,12,3,3,4.700000000000001,-122.1598465,37.4443293
"London, UK ",0,6,0,61,25.000000000000004,-0.1276474,51.5073219
New York,10,14,15,184,81.50000000000001,-74.0060152,40.7127281
USA,3,9,22,90,44.1,-100.4458825,39.7837304
"hyderabad,india",1,1,2,7,3.7,78.46106473453146,17.38878595
"Nairobi, Kenya",16,25,11,263,114.2,36.8172449,-1.2832533
Belém - Pará - Brazil,9,3,35,122,61.40000000000001,-48.4682453,-1.45056
Casablanca,0,0,1,6,2.7,-7.618756606822727,33.5675527
Thessaloniki,1,1,0,117,47.1,22.9352716,40.6403167
Chicago,13,29,77,253,129.8,-87.6244212,41.8755616
Hyderabad,2,5,24,39,23.700000000000006,78.46106473453146,17.38878595
Kraków,12,8,4,596,242.8,19.9368564,50.0619474
"Haryana, India",7,5,5,45,21.4,76.0,29.0
NY,0,1,0,4,1.7000000000000002,-75.8449946,43.1561681
"São Paulo, Brasil",2,4,0,1,1.2000000000000002,-46.6333824,-23.5506507
"Andhra pradesh,India",0,0,9,25,12.7,80.1863809,15.9240905
"Naperville, IL",10,6,16,109,51.0,-88.1479278,41.7728699
Kathmandu,30,38,461,114,193.7,85.3205817,27.708317
Bangalore,30,38,461,19,155.7,77.5912997,12.9791198
NY,0,1,0,4,1.7000000000000002,-75.8449946,43.1561681
Banglore India,1,0,0,36,14.6,78.8087788,18.3903609
California ,6,23,4,115,50.7,-118.7559974,36.7014631
"Zurich, Switzerland",2,2,2,339,136.79999999999998,8.5423328,47.3723941
"Patiala, Punjab (India)",1,13,5,122,51.8,76.3398720856221,30.2090874
"Kolkata, India",4,9,78,208,108.3,88.3567751581234,22.54541245
India,16,3,2,98,43.3,78.6677428,22.3511148
Mumbai,1,4,0,23,9.8,72.8353355,18.9387711
"Huntsville, AL",1,4,0,2,1.4,-86.5859011,34.729847
"Lynwood, Washington",7,9,7,10,8.4,-122.5473572,47.6045411
Jodhpur,7,9,7,2,5.2,73.0351433,26.2967719
Chennai,0,0,3,62,25.7,80.2838331,13.0801721
"Sylhet,Bangladesh",52,264,18,72,71.0,91.71773617004385,24.59107805
"Abuja, Nigeria",5,4,1,24,11.3,7.4892974,9.0643305
India,1,3,14,92,41.50000000000001,78.6677428,22.3511148
İstanbul ,35,29,2,331,142.9,28.9651646,41.0096334
"Chennai, India",0,4,9,75,33.1,80.2838331,13.0801721
Norway,0,0,31,57,32.1,9.0999715,60.5000209
"Hammond, LA",5,8,8,286,118.6,-87.500043,41.5833658
"Brisbane, Australia",101,119,626,889,575.5,153.0234991,-27.4689682
PUNE,101,119,626,26,230.3,73.8544541,18.521428
India,0,3,0,89,35.9,78.6677428,22.3511148
Hyderabad,4,8,23,42,25.3,78.46106473453146,17.38878595
Manipal,4,8,23,53,29.700000000000006,74.7870308,13.3519723
"Bhubaneswar, India",11,15,8,71,34.5,85.8435592,20.2667774
"Chicago, IL, USA",1,1,0,108,43.5,-87.6244212,41.8755616
New Delhi,1,14,47,104,57.3,77.2090057,28.6138954
"Washington, DC",0,0,3,7,3.7,-77.0365581,38.8949924
"Kathmandu, Nepal",1,1,0,5,2.3,85.3205817,27.708317
İstanbul,0,0,1,38,15.500000000000002,28.9651646,41.0096334
Bengaluru,0,3,16,36,19.5,77.5912997,12.9791198
"MD, USA",2,0,0,92,37.2,-76.9382069,39.5162234
India,2,0,0,123,49.6,78.6677428,22.3511148
"Istanbul,Turkey",1,0,3,38,16.3,28.9651646,41.0096334
"Athens,Greece",2,0,0,112,45.2,23.7283052,37.9839412
"Pune,India",1,0,0,69,27.8,73.8544541,18.521428
"Bangalore,Karnataka,India",4,3,11,95,42.4,77.5912997,12.9791198
India,1,1,2,489,196.50000000000003,78.6677428,22.3511148
Bangalore,22,7,19,164,76.4,77.5912997,12.9791198
HK,1,0,9,71,31.3,114.1849161,22.350627
"Brooklyn, NY",2,2,0,119,48.2,-73.9495823,40.6501038
New Delhi,5,9,5,129,55.0,77.2090057,28.6138954
"Jaipur,Rajasthan",1,5,47,178,86.0,75.820349,26.916194
Noida,1,1,0,34,13.900000000000002,77.3910727,28.5356329
"Leiria - Lisbon, Portugal",8,15,27,88,46.40000000000001,-9.1455273,38.803422
"MUMBAI ,INDIA",5,14,34,138,67.8,72.8353355,18.9387711
"26.1445° N, 91.7362° E",6,46,32,236,109.8,91.73642556634175,26.1453579
Manchester,0,4,10,68,30.6,-2.2451148,53.4794892
San Francisco,0,0,3,65,26.9,-122.4199061,37.7790262
Waterloo Canada,1,2,1,45,18.7,-80.524635,43.466874
New Delhi,2,2,11,61,28.3,77.2090057,28.6138954
https://www.linkedin.com/in/anjaligarg30,2,2,11,44,21.5,,
"Mumbai,Maharashtra,India",0,4,0,108,43.6,72.8353355,18.9387711
Chile,1,3,0,110,44.5,-71.3187697,-31.7613365
"Berlin,Germany",3,19,0,65,28.5,13.4025498,52.5015217
"Wonju, Korea",3,4,0,284,114.6,127.9197603,37.3420996
"Chingford, London",1,2,1,36,15.1,0.0039962,51.630887
"Melbourne,Australia",1,2,1,27,11.5,144.9631608,-37.8142176
Hyderabad,0,0,1,126,50.7,78.46106473453146,17.38878595
Pune,1,2,0,68,27.6,73.8544541,18.521428
"Chennai, Tamil Nadu",1,5,2,118,48.5,80.2838331,13.0801721
New Jersey,0,0,21,193,83.5,-74.4041622,40.0757384
"Brisbane, Australia",101,119,626,889,575.5,153.0234991,-27.4689682
Mumbai,0,2,2,20,8.8,72.8353355,18.9387711
Nigeria,0,1,0,20,8.1,7.9999721,9.6000359
Aurangabad,0,1,0,53,21.300000000000004,75.3390241,19.877263
"Chittagong, Bangladesh",13,103,19,172,87.4,91.8412863,22.3307998
Bursa Turkey,5,21,24,44,27.9,29.0677305,40.1827657
Mumbai,2,2,0,25,10.6,72.8353355,18.9387711
"Frisco, TX",0,1,0,53,21.300000000000004,-96.8236116,33.1506744
"warrangal,telangana",0,23,0,71,30.700000000000006,,
Dhaka,1,8,5,35,16.5,90.4126466,23.810651
Rajam,0,1,0,93,37.3,84.564794,18.8576168
Hyderabad,0,1,0,10,4.1,78.46106473453146,17.38878595
"Maryland, DC metro area",5,1,1,40,17.4,-76.814019,38.613515
"Hoboken, NJ",4,7,1,82,34.6,-74.0323752,40.7433066
Banglore,2,2,40,342,149.4,79.5715088,18.0056901
"Vancouver, Canada",2,2,40,41,29.0,-123.1139529,49.2608724
Computer Science,3,2,8,197,82.00000000000001,79.9730847,12.9874138
Boston,3,2,8,4,4.800000000000002,-71.0582912,42.3602534
PUNE,2,1,5,17,8.8,73.8544541,18.521428
Nagercoil,2,1,5,73,31.200000000000006,77.4290492,8.1880471
Bangalore,1,1,1,44,18.200000000000006,77.5912997,12.9791198
"Chennai, TamilNadu",5,10,5,72,32.3,80.2838331,13.0801721
Mumbai,14,7,1,250,103.8,72.8353355,18.9387711
"Berkeley, CA",7,3,0,610,245.7,-80.7272504,44.3669375
Goiânia,10,26,15,58,32.300000000000004,-49.2532691,-16.680882
India,1,0,0,52,21.0,78.6677428,22.3511148
Dilhi NCR,0,9,7,83,36.2,,
Melbourne,0,9,7,76,33.40000000000001,144.9631608,-37.8142176
"Waterloo, ON",2,1,0,64,26.1,-80.524635,43.466874
IIT Kharagpur,0,0,1,43,17.5,87.3104488017961,22.31442745
"Ahmedabad, India",0,0,1,58,23.500000000000004,72.5797068,23.0216238
"New Delhi, India",0,0,1,9,3.9,77.2090057,28.6138954
Darbhanga,1,0,0,15,6.2,86.03257096612822,26.08314325
Nellore,1,0,0,3,1.4,79.9873763,14.4493717
Egypt,1,2,0,18,7.6,29.2675469,26.2540493
"Leipzig, Germany",7,10,0,175,72.4,12.3747329,51.3406321
"Dhaka, Bangladesh",7,10,0,4,4.0,90.4126466,23.810651
"Pune, India",8,3,7,592,240.8,73.8544541,18.521428
"IIIT,Guwahati",0,1,3,363,146.20000000000005,,
"Mbarara, Uganda",2,2,1,16,7.300000000000002,30.63412741499534,-0.52283825
"Recife, PE - Brazil",9,0,7,20,11.9,-34.8848193,-8.0584933
United Kingdom,9,0,7,370,151.9,-3.2765753,54.7023545
"Nairobi, Kenya",9,0,7,45,21.9,36.8172449,-1.2832533
Hyderabad,1,0,0,59,23.8,78.46106473453146,17.38878595
India,0,0,4,79,32.800000000000004,78.6677428,22.3511148
San Diego,4,5,0,304,122.9,-117.1627714,32.7174209
Egypt-Cairo,3,2,26,97,47.40000000000001,31.243666,30.048819
"Bengaluru,India",0,0,4,12,6.000000000000001,77.5912997,12.9791198
Dhaka,63,52,129,74,86.1,90.4126466,23.810651
"Toronto, Canada",3,4,3,0,1.9,-79.3839347,43.6534817
Cornwall,7,18,14,52,28.200000000000006,-4.75,50.416667
Germany,4,4,13,336,139.5,10.4234469,51.0834196
"Vancouver, BC",20,7,39,109,60.0,-123.1139529,49.2608724
Tallahassee FL,0,1,0,0,0.1,-84.2809332,30.4380832
Quixadá,27,12,1,8,10.1,-39.0158403,-4.9706021
"Pfarrkirchen, Germany",1,0,0,0,0.2,12.9397371,48.4340737
India,17,0,0,15,9.4,78.6677428,22.3511148
"Bangalore, India",23,7,12,5,10.9,77.5912997,12.9791198
Cluj-Napoca,5,1,9,27,14.6,23.5899542,46.769379
Texas,6,8,12,0,5.6,-99.5120986,31.8160381
Hyderabad,2,3,3,38,16.8,78.46106473453146,17.38878595
Singapore,69,15,90,12,47.1,103.83039182212079,1.3408630000000001
Seattle,3,1,1,0,1.0,-122.3300624,47.6038321
"Budapest, Hungary",3,1,1,0,1.0,19.14607278448202,47.48138955
"Accra, Ghana",27,15,7,16,15.4,-0.2057437,5.5600141
Florida,1,5,0,43,17.9,-81.4639835,27.7567667
India,4,11,32,58,34.7,78.6677428,22.3511148
"San Jose, CA",0,10,0,10,5.0,-121.8905833,37.3361905
India,13,12,6,917,372.4,78.6677428,22.3511148
"Aarhus, Denmark",52,35,269,1997,893.4000000000002,10.2134046,56.1496278
Curitiba Paraná,19,44,227,1097,515.1,-49.2712724,-25.4295963
"Washington, DC",43,23,2,437,186.3,-77.0365581,38.8949924
DFW TX,7,26,399,65,149.7,-97.0465220537124,32.89651945
"Austin, Texas",5,0,0,6,3.4000000000000004,-97.7436995,30.2711286
Mauritius,33,61,333,618,359.8,57.5703566,-20.2759451
"Russia, Armenia",216,6,52,595,297.4,44.5103028,40.1716945
Lisbon,6,4,1,0,1.9,-9.1365919,38.7077507
Boston,1,1,0,0,0.30000000000000004,-71.0582912,42.3602534
"Cambridge, MA",3,1,3,922,370.4,-71.1056157,42.3750997
Munich,26,36,79,45,50.5,11.5753822,48.1371079
"Chicago, IL",13,3,129,86,76.0,-87.6244212,41.8755616
harare,4,9,9,68,31.6,31.045686,-17.831773
MUMBAI,2,4,6,3,3.8,72.8353355,18.9387711
Recife - Brazil,12,8,24,152,71.2,-34.8848193,-8.0584933
Mexico City,3,5,3,48,21.200000000000006,-99.1331785,19.4326296
"Sydney, Australia",1,2,7,0,2.5,151.2164539,-33.8548157
United States,1,1,0,4,1.9,-100.4458825,39.7837304
Hyderabad,1,0,0,0,0.2,78.46106473453146,17.38878595
Japan,27,35,321,205,187.2,139.2394179,36.5748441
"Melbourne, Australia",0,0,4,8,4.4,144.9631608,-37.8142176
Dhaka,41,233,227,40,115.6,90.4126466,23.810651
"Vallejo, CA",34,20,150,189,129.4,-122.2566367,38.1040864
Sydney,4,0,3,386,156.1,151.2164539,-33.8548157
Bareilly,6,2,10,107,47.2,79.40557093743058,28.457876
Banglore,14,111,6,3,16.900000000000002,79.5715088,18.0056901
"Kolkata, India",2,11,26,1,9.7,88.3567751581234,22.54541245
"Dallas, TX",6,6,9,13,9.7,-96.7968559,32.7762719
"Somewhere, Iowa",3,12,30,45,28.8,,
Pune,3,12,30,7,13.6,73.8544541,18.521428
Boston,84,15,48,266,139.10000000000002,-71.0582912,42.3602534
Banglore,0,2,0,93,37.40000000000001,79.5715088,18.0056901
Seattle,7,4,22,27,19.200000000000006,-122.3300624,47.6038321
Chemnitz - Germany,2,0,0,363,145.60000000000005,12.9252977,50.8322608
"Davis, California",2,2,0,144,58.2,-121.7445835,38.545379
"Russia, Moscow",2,2,0,0,0.6000000000000001,37.6174943,55.7504461
"Delhi, India",3,4,4,10,6.2,77.1716954,28.6273928
Egypt,37,26,37,101,61.50000000000001,29.2675469,26.2540493
"Kolkata, West Bengal",1,0,1,155,62.5,88.3567751581234,22.54541245
"Chicago, US",0,1,1,65,26.4,-87.6244212,41.8755616
Auckland,1,0,13,74,33.7,174.7631803,-36.852095
"Phoenix, Arizona",10,9,2,0,3.5,-112.0741417,33.4484367
_Aus,0,1,13,0,4.0,-97.66500963529677,30.19348925
"Paramount, CA",1,1,0,58,23.500000000000004,-123.13542009484578,49.1668593
"columbia, Missouri",1,3,4,0,1.7,-92.3337366,38.951883
DIY Yogyakarta,1,0,11,4,5.1,110.36337628399158,-7.78933775
Mumbai,20,34,40,40,35.4,72.8353355,18.9387711
"Phoenix, Arizona",10,9,2,0,3.5,-112.0741417,33.4484367
_Aus,0,1,13,0,4.0,-97.66500963529677,30.19348925
"Paramount, CA",1,1,0,58,23.500000000000004,-123.13542009484578,49.1668593
"Waterloo, ON, Canada",17,28,57,2,24.1,-80.524635,43.466874
Jaipur,2,4,0,39,16.400000000000002,75.820349,26.916194
Bangalore,1,0,0,0,0.2,77.5912997,12.9791198
Moscow,1,0,0,16,6.6000000000000005,37.6174943,55.7504461
Mysore,3,3,16,68,32.90000000000001,76.6553609,12.3051828
Shillong,10,43,63,278,136.4,91.8825282,25.5760446
hyderabad,0,2,0,14,5.800000000000002,78.46106473453146,17.38878595
Medellín,3,2,0,15,6.8,-75.573553,6.2443382
Banglore,12,14,27,218,99.1,79.5715088,18.0056901
"Wales, UK",824,2,57,2534,1195.7,-3.73893,52.2928116
New Brunswick,1,0,6,38,17.2,-66.750183,46.500283
Mexico,14,0,2,60,27.4,-100.0000375,22.5000485
"Chicago, IL",0,2,0,2,1.0,-87.6244212,41.8755616
"Vienna, Austria",7,11,6,384,157.90000000000003,16.3725042,48.2083537
Ecuador,0,1,0,0,0.1,-79.3666965,-1.3397668
"Norman, OK",8,11,7,147,63.60000000000001,-97.4394816,35.2225717
Washington DC,8,11,7,14,10.400000000000002,-77.0365581,38.8949924
"Hilversum, The Netherlands",1,19,42,5,16.7,5.1763518,52.2248095
"KOLKATA, INDIA ",1,0,0,13,5.4,88.3567751581234,22.54541245
London,0,3,0,89,35.9,-0.1276474,51.5073219
Chennai,3,2,0,6,3.2,80.2838331,13.0801721
"Montréal, Québec, Canada",5,1,11,436,178.8,-73.6103642,45.4972159
chennai,5,1,11,0,4.4,80.2838331,13.0801721
India,2,22,112,889,391.8,78.6677428,22.3511148
"Roorkee, Uttarakhand, India",3,5,9,212,88.60000000000002,77.8902124,29.8693496
vizianagaram,0,1,0,12,4.9,83.4052196224888,18.1120819
"Dallas, Texas",2,1,0,67,27.3,-96.7968559,32.7762719
"Odessa, Ukraine",1,2,6,508,205.4,30.7392776,46.4873195
"Ottawa, Canada",1,2,2,4,2.6,-75.690308,45.421106
Kansas,0,1,0,0,0.1,-98.5821872,38.27312
Mumbai,0,1,0,0,0.1,72.8353355,18.9387711
Penang,0,1,0,28,11.3,100.2559077,5.4065013
"Shantou,China",0,1,9,32,15.6,116.6775918,23.356377
"Ghaziabad,India",4,1,0,265,106.9,77.4445372,28.711241
India,2,9,12,81,37.3,78.6677428,22.3511148
"Kashanyarazi-Kamukuzi, Mbarara City",1,3,0,10,4.5,30.6533181,-0.6107896
SA,6,8,7,32,16.9,127.6961188,36.638392
Bangalore,0,0,1,3,1.5000000000000002,77.5912997,12.9791198
"Kollam,Kerala",10,8,22,105,51.4,76.5955013,8.8879509
Wardha India ,1,2,1,57,23.5,78.61314549522919,20.82562315
"Varanasi, India",26,20,23,299,133.70000000000002,83.0076292,25.3356491
"Jaipur,Rajasthan,India",3,5,4,89,37.9,75.820349,26.916194
Leeds,1,1,6,177,72.89999999999998,-1.5437941,53.7974185
Hyderabad,2,2,3,31,13.9,78.46106473453146,17.38878595
San Francisco ,1,1,1,0,0.6000000000000001,-122.4199061,37.7790262
"Bethesda, MD USA",2,0,0,600,240.4,-77.0946459,38.9848265
United Kingdom,2,0,0,10,4.4,-3.2765753,54.7023545
Germany,2,0,0,20,8.4,10.4234469,51.0834196
Lavras-MG,2,8,4,4,4.0,-44.9991978,-21.2425512
surabaya,8,3,4,44,20.700000000000006,112.7378266,-7.2459717
Brasília/DF,10,4,13,93,43.5,-47.8823172,-15.7934036
São Paulo,9,6,21,489,204.3,-46.6333824,-23.5506507
"Serbia,  Belgrade",15,32,51,74,51.1,20.4568974,44.8178131
Bangalore,15,32,51,66,47.90000000000001,77.5912997,12.9791198
Thessaloniki,1,1,0,117,47.1,22.9352716,40.6403167
"Wrocław, PL",7,3,37,99,52.40000000000001,17.0326689,51.1089776
Sydney,1,1,0,26,10.7,151.2164539,-33.8548157
"Chicago, USA",0,0,2,69,28.200000000000006,-87.6244212,41.8755616
Hyderabad,2,5,24,39,23.700000000000006,78.46106473453146,17.38878595
"House-1148 (1st, 3rd, & 4th floor) Road 9A(Old-48), Mirpur DOHS, Dhaka-1216 Bangladesh ",1,6,7,193,80.10000000000002,,
Guwahati,2,4,5,87,37.1,91.753943,26.1805978
"Khulna-9203, Bangladesh",20,7,4,113,51.1,89.563759,22.8171664
Jaipur,5,1,1,21,9.8,75.820349,26.916194
Chennai - India,3,2,1,28,12.3,80.2838331,13.0801721
United States,6,6,16,228,97.8,-100.4458825,39.7837304
Guwahati,2,4,5,87,37.1,91.753943,26.1805978
Stanford,2,6,2,45,19.6,-122.17029258409187,37.426540700000004
New York,1,0,0,320,128.2,-74.0060152,40.7127281
India,56,53,127,829,386.2000000000001,78.6677428,22.3511148
Banglore,1,2,20,71,34.800000000000004,79.5715088,18.0056901
NIT Durgapur,0,3,6,24,11.7,87.29105711911097,23.54869625
Turkey - Istanbul,66,0,21,49,39.1,28.9651646,41.0096334
"Dallas, Texas",1,0,3,5,3.1,-96.7968559,32.7762719
"Bengaluru, Karnataka, India",1,0,3,14,6.7,77.5912997,12.9791198
"32.621921, 51.647334",33,120,161,639,322.5,51.6473077,32.6217067
"Colombo, Sri Lanka",4,0,15,1785,719.3,79.8538463,6.9349969
New York,0,1,1,13,5.6000000000000005,-74.0060152,40.7127281
New Delhi,2,1,0,236,94.9,77.2090057,28.6138954
"Buea, Cameroon",1,1,1,354,142.2,9.2315519,4.1567995
"Mumbai, India",20,41,18,324,143.1,72.8353355,18.9387711
"Islamabad, Pakistan",20,41,18,31,25.9,73.0651511,33.6938118
"Windsor, ON",18,12,13,519,216.3,-82.9780695,42.2858536
"Gurgaon , Haryana",0,1,1,19,8.0,77.0299194,28.4646148
"Maharashtra Nagpur, India",1,5,10,46,22.1,78.9725097,21.5071955
"Trivandrum,Kerala",1,5,10,95,41.7,76.9360573,8.5241122
New Delhi ,6,2,5,142,59.7,77.2090057,28.6138954
Cotia - São Paulo,3,7,2,59,25.5,-46.918889,-23.603889
"New Brunswick, NJ",1,0,0,51,20.6,-74.4518173,40.4862174
Belgium,1,3,6,26,12.7,4.6667145,50.6402809
Dehradun,0,11,17,644,263.8,78.0436813,30.3255646
Singapore,1,1,2,67,27.7,103.83039182212079,1.3408630000000001
Pune,2,16,5,28,14.7,73.8544541,18.521428
"Alexandria, Egypt",6,9,5,66,30.000000000000004,29.894378,31.199004
Mumbai,18,24,21,435,186.3,72.8353355,18.9387711
Pune,18,24,21,11,16.700000000000006,73.8544541,18.521428
Bangalore,0,2,0,74,29.8,77.5912997,12.9791198
Singapore,0,2,0,31,12.6,103.83039182212079,1.3408630000000001
JABALPUR,0,0,4,114,46.8,79.9497702,23.1608938
Stockholm,2,0,0,116,46.8,18.0710935,59.3251172
"Karachi, Pakistan.",2,0,0,10,4.4,67.0311286,24.8667795
Pune,1,3,0,15,6.5,73.8544541,18.521428
"New Delhi, India",1,1,0,45,18.3,77.2090057,28.6138954
"Chicago, IL",11,23,73,944,404.0,-87.6244212,41.8755616
Chhattisgarh,0,0,1,116,46.7,81.8406351,21.6637359
Bengaluru,0,2,1,8,3.7,77.5912997,12.9791198
India,345,3,2,34,83.5,78.6677428,22.3511148
Bhopal,0,0,4,196,79.60000000000002,77.401989,23.2584857
Hyderabad,4,4,1,250,101.5,78.46106473453146,17.38878595
NYC,4,4,0,56,23.6,-74.0060152,40.7127281
new delhi,8,16,9,289,121.5,77.2090057,28.6138954
"Mangaluru,India",31,22,62,363,172.20000000000005,74.8430082,12.8698101
Uthukottai,4,4,10,16,10.6,79.8910439,13.3342334
Mumbai,2,10,3,147,61.1,72.8353355,18.9387711
St Louis,1,1,1,72,29.4,-90.1994097,38.6268039
VIT VELLORE,4,4,0,20,9.2,79.16075427896692,12.97229435
San Jose,0,1,1,328,131.60000000000002,-121.8905833,37.3361905
"London, UK",1,6,5,160,66.3,-0.1276474,51.5073219
Noida,1,6,5,50,22.3,77.3910727,28.5356329
Bhopal,0,0,4,196,79.60000000000002,77.401989,23.2584857
Mumbai,4,2,1,78,32.5,72.8353355,18.9387711
Hyderabad,1,1,0,90,36.3,78.46106473453146,17.38878595
"Chicago, IL",0,1,6,48,21.1,-87.6244212,41.8755616
Montreal,1,0,0,109,43.8,-73.6103642,45.4972159
New York,6,9,41,589,250.00000000000003,-74.0060152,40.7127281
"New Delhi, India",4,5,25,4005,1610.8,77.2090057,28.6138954
New Jersey,0,0,21,193,83.5,-74.4041622,40.0757384
Brazil,2,2,0,144,58.2,-53.2,-10.3333333
Kolkata,2,2,0,93,37.8,88.3567751581234,22.54541245
India,0,0,5,100,41.5,78.6677428,22.3511148
"Hyderabad, India",0,2,0,28,11.4,78.46106473453146,17.38878595
Ottawa Canada,0,0,1,18,7.5,-75.690308,45.421106
chennai,0,4,11,84,37.3,80.2838331,13.0801721
Bengaluru,0,0,6,39,17.400000000000002,77.5912997,12.9791198
"Boulder, CO",1,2,0,149,60.0,-105.2705456,40.0149856
mumbai,1,2,0,5,2.4,72.8353355,18.9387711
"San Jose, California, USA",1,2,1,16,7.1000000000000005,-121.8905833,37.3361905
Singapore,0,0,4,26,11.6,103.83039182212079,1.3408630000000001
Jodhpur,0,0,4,16,7.6,73.0351433,26.2967719
Pune,0,1,4,58,24.500000000000004,73.8544541,18.521428
Tumkur,1,4,0,32,13.4,77.1006208,13.3400771
New Delhi,2,3,3,169,69.2,77.2090057,28.6138954
"Maharastra ,Mumbai",1,7,17,60,30.0,72.8353355,18.9387711
Pune,4,6,7,121,51.90000000000001,73.8544541,18.521428
Mangalore,6,5,1,54,23.6,74.8430082,12.8698101
"Kumasi, Ghana- West Africa",3,7,0,14,6.9,,
São Paulo,3,7,0,81,33.7,-46.6333824,-23.5506507
Hyderabad,3,7,0,79,32.9,78.46106473453146,17.38878595
"Brasília, DF",7,5,15,280,118.4,-47.8823172,-15.7934036
"Durban, KZN",7,5,15,7,9.2,31.009909,-29.861825
"London, UK",0,1,0,32,12.9,-0.1276474,51.5073219
Indore,0,1,0,15,6.1,75.8681996,22.7203616
"Hemel Hempstead, UK",2,9,42,68,41.1,-0.472528,51.7511784
Chennai,10,14,31,46,31.1,80.2838331,13.0801721
"VIT,VELLORE",4,11,16,241,103.1,79.16075427896692,12.97229435
"Ghaziabad,UP",1,1,0,10,4.3,77.4445372,28.711241
"Dehradun, Uttarakhand, INDIA",3,6,5,79,34.300000000000004,78.0436813,30.3255646
"Thessaloniki, Greece",1,1,0,124,49.9,22.9352716,40.6403167
Uruguay,2,3,0,31,13.1,-56.0201525,-32.8755548
Kota,0,1,4,18,8.5,76.00089330885552,25.1968256
New York,2,2,1,286,115.3,-74.0060152,40.7127281
"Cincinnati, OH",1,4,2,39,16.8,-84.5124602,39.1014537
New Delhi,0,0,4,41,17.6,77.2090057,28.6138954
İzmir/Türkiye,1,4,5,23,11.3,27.1434119,38.4147331
India,5,12,30,60,35.2,78.6677428,22.3511148
"Toronto, ON",6,9,1,33,15.6,-79.3839347,43.6534817
Bangalore,0,3,2,33,14.1,77.5912997,12.9791198
"Duisburg, Germany",2,3,6,163,67.7,6.759562,51.434999
"Bandung, Indonesia",8,10,10,39,21.200000000000006,107.6049539,-6.9344694
Turkey,0,1,2,10,4.7,34.9249653,38.9597594
mumbai,10,10,21,184,82.9,72.8353355,18.9387711
"Ottawa, Canada",10,10,21,51,29.700000000000006,-75.690308,45.421106
"kathmandu,Nepal",0,1,0,3,1.3000000000000005,85.3205817,27.708317
"Galle, Srilanka",0,1,0,9,3.7,80.214955,6.0328139
Canada,2,1,2,6,3.5000000000000004,-107.9917071,61.0666922
"Manhattan, NYC",1,0,3,41,17.500000000000004,-73.9598939,40.7896239
"Rochester, NY",1,0,3,17,7.9,-77.615214,43.157285
Gwalior,1,0,8,131,55.00000000000001,78.1573628,26.2037247
Sunnyvale,1,2,23,171,75.7,-122.0363496,37.3688301
Denver,2,6,6,146,61.2,-104.9848623,39.7392364
"Dakar, Sénégal",208,521,1900,119,711.3000000000002,-17.447938,14.693425
kolkata,208,521,1900,13,668.9000000000002,88.3567751581234,22.54541245
"Boston, MA",0,2,13,38,19.3,-71.0582912,42.3602534
London,136,54,38,9125,3694.0,-0.1276474,51.5073219
Tempe,20,17,5,32,20.0,-111.9400125,33.4255056
Bengaluru,20,17,5,0,7.2,77.5912997,12.9791198
Bangalore,6,0,5,0,2.7,77.5912997,12.9791198
"Melbourne, Australia ",11,13,166,79,84.9,144.9631608,-37.8142176
vigo,12,18,0,6,6.6000000000000005,-8.7117809,42.1964491
Sydney,4,4,21,1,7.9,151.2164539,-33.8548157
New York,14,18,2,6,7.6,-74.0060152,40.7127281
berlin - in your ♥,59,1,14,2115,862.1,13.3663505,52.5520132
Dehradun,59,1,14,0,16.1,78.0436813,30.3255646
Singapore,12,0,51,28,28.9,103.83039182212079,1.3408630000000001
San Francisco,14,5,0,0,3.3000000000000003,-122.4199061,37.7790262
Halifax,19,0,0,0,3.8,-63.5859487,44.648618
"Seattle, Washington",8,0,3,0,2.5,-122.3300624,47.6038321
São José dos Campos,24,28,71,898,388.1,-45.8872969,-23.1805011
delhi,14,0,0,19,10.4,77.1716954,28.6273928
"Delhi, India",6,1,68,148,80.9,77.1716954,28.6273928
"Columbia,United States",2,2,1,99,40.5,-81.0343313,34.0007493
Norway,8,5,2,24,12.3,9.0999715,60.5000209
Netherlands,0,0,1,0,0.3,5.7480821,52.5001698
"Charlotte, NC",1,1,0,2,1.1,-80.843083,35.2272
New York,1,0,1,1,0.9,-74.0060152,40.7127281
Greater New York City Area,1,5,1,47,19.8,17.7833606,51.897262
"Johannesburg, South Africa ",4,3,3,19,9.6,28.049722,-26.205
Ahmedabad,360,177,1200,220,537.7,72.5797068,23.0216238
"Madrid, Spain",6,4,38,125,63.0,-3.7035825,40.4167047
Italy,108,8,10,798,344.6,12.674297,42.6384261
"Dallas, Texas, USA",1,0,0,0,0.2,-96.7968559,32.7762719
"Lisbon, Portugal",17,177,289,121,156.20000000000005,-9.1365919,38.7077507
"Oxford, UK",14,29,138,113,92.3,-1.2578499,51.7520131
"San Francisco, CA",3,2,0,332,133.60000000000002,-71.2743272,46.8443248
"Norfolk, VA",6,8,8,119,52.0,-76.2929252,36.8462923
"Algiers, Algeria",1,0,2,1,1.2000000000000002,2.9999825,28.0000272
"London, UK",1,0,0,2,1.0,-0.1276474,51.5073219
Belgium,14,21,183,281,172.2,4.6667145,50.6402809
"HYDERABAD, INDIA",3,1,0,148,59.90000000000001,78.46106473453146,17.38878595
Sarajevo,1,0,0,0,0.2,18.3866868,43.8519774
San Francisco,4,2,8,40,19.4,-122.4199061,37.7790262
"Kenitra, Morocco",26,14,59,245,122.3,-6.567665751379858,34.25506595
Norway,5,3,3,225,92.2,9.0999715,60.5000209
"Harare, Zimbabwe",24,15,14,196,88.9,31.045686,-17.831773
"TOKYO-JAPAN, ROK-SEOUL",130,11,168,7756,3179.9,,
Pune,10,9,15,20,15.4,73.8544541,18.521428
Egypt,24,58,38,57,44.8,29.2675469,26.2540493
Delhi,1,28,9,249,105.3,77.1716954,28.6273928
"Delhi, India",3,6,51,156,78.9,77.1716954,28.6273928
India,5,10,1,0,2.3,78.6677428,22.3511148
"Toronto, Canada",69,36,1100,249,447.0,-79.3839347,43.6534817
Chennai,69,36,1100,0,347.4,80.2838331,13.0801721
Bangalore,2,2,12,3,5.4,77.5912997,12.9791198
Raleigh,2,2,12,0,4.199999999999998,-78.6390989,35.7803977
United Arab Emirates,0,2,23,0,7.1,53.9994829,24.0002488
shenzhen,3,23,385,31,130.8,114.0543297,22.555454
Gurgaon,3,23,385,5,120.4,77.0299194,28.4646148
Gurgaon,1,2,3,8,4.5,77.0299194,28.4646148
"Birmingham, AL",3,1,0,4,2.3000000000000003,-86.8024326,33.5206824
Bangalore,3,1,0,7,3.5000000000000004,77.5912997,12.9791198
China,22,46,48,422,192.2,104.999927,35.000074
Singapore ,12,54,69,54,50.1,103.83039182212079,1.3408630000000001
"Bay Area, CA",4,4,0,25,11.2,-122.3558473,37.7884969
"Madurai, Tamil Nadu, India",96,3,66,737,334.1,78.1140983,9.9261153
"Riverwoods, IL",5,29,9,171,75.0,-87.8970986,42.1676068
"Syracuse, NY, United States",5,29,9,0,6.6,-76.1474244,43.0481221
Beijing,90,107,224,228,187.1,116.412144,40.190632
"Atlanta, GA",2,1,0,371,148.9,-84.3901849,33.7490987
New York City,3,2,1,195,79.1,-74.0060152,40.7127281
United States,1,0,5,0,1.7,-100.4458825,39.7837304
"Detroit, MI",11,0,4,102,44.2,-83.0466403,42.3315509
Mumbai,3,0,0,0,0.6000000000000001,72.8353355,18.9387711
Bangalore,1,5,8,11,7.5,77.5912997,12.9791198
India,1,3,3,5,3.4,78.6677428,22.3511148
"Detroit, MI",11,0,4,102,44.2,-83.0466403,42.3315509
Mumbai,3,0,0,0,0.6000000000000001,72.8353355,18.9387711
London,3,0,0,0,0.6000000000000001,-0.1276474,51.5073219
Nepal,3,21,5,15,10.2,84.0917139,28.1083929
Taiwan,3,21,5,0,4.2,120.83536313817521,23.59829785
Bay Area,7,10,2,147,61.8,-122.3558473,37.7884969
"Mumbai,India",2,0,13,104,45.9,72.8353355,18.9387711
"Brasília, Brazil",4,4,3,129,53.7,-53.2,-10.3333333
Bahrain,0,2,0,0,0.2,50.5344606,26.1551249
"Delhi, India",1,1,0,0,0.30000000000000004,77.1716954,28.6273928
India,4,4,1,96,39.90000000000001,78.6677428,22.3511148
"Indianapolis, IN USA",3,5,0,4,2.7,-86.1583502,39.7683331
"Ghaziabad, India",0,4,3,17,8.100000000000001,77.4445372,28.711241
San Francisco,0,2,6,0,2.0,-122.4199061,37.7790262
France,1,0,1,63,25.700000000000006,1.8883335,46.603354
Gurgaon,1,0,0,6,2.6000000000000005,77.0299194,28.4646148
"Gainesville, Florida",0,0,1,3,1.5000000000000002,-82.3249846,29.6519684
"Atlanta, GA",13,5,48,296,135.9,-84.3901849,33.7490987
"Hamburg, Germany ",2,6,9,92,40.50000000000001,10.000654,53.550341
New York,241,5,28,303,178.3,-74.0060152,40.7127281
İstanbul,1,0,0,0,0.2,28.9651646,41.0096334
"Charlottesville, VA",0,0,1,112,45.1,-78.4766781,38.029306
"Dhaka, Bangladesh",1,17,0,11,6.300000000000002,90.4126466,23.810651
"Montreal, Canada",4,6,21,499,207.3,-73.6103642,45.4972159
"Indianapolis, IN",0,0,1,165,66.3,-86.1583502,39.7683331
"San Diego, California",4,5,11,2,5.4,-117.1627714,32.7174209
"São Paulo, Brasil",122,15,0,769,333.5,-46.6333824,-23.5506507
Bangalore,4,10,4,87,37.8,77.5912997,12.9791198
"Jakarta, Indonesia",4,10,4,0,3.0,106.827183,-6.1753942
Afghanistan Kabul,4,4,16,8,9.2,69.1776838,34.5260109
"Irvine, California",0,0,4,1,1.6,-117.8259819,33.6856969
Los Angeles,2,0,0,928,371.6,-118.2427666,34.0536909
Munich,23,51,203,1016,477.0,11.5753822,48.1371079
Kolkata,5,2,0,159,64.8,88.3567751581234,22.54541245
Chandigarh,5,2,0,0,1.2,76.78414567016054,30.72984395
"Dhaka ,Bangladesh",43,30,3,0,12.5,90.4126466,23.810651
Hyderabad,43,30,3,19,20.1,78.46106473453146,17.38878595
India,8,65,88,395,192.5,78.6677428,22.3511148
Mumbai,12,1,103,168,100.6,72.8353355,18.9387711
"Seattle, WA",12,1,103,2,34.2,-122.3300624,47.6038321
New Delhi,17,7,10,186,81.5,77.2090057,28.6138954
Denmark,1,1,4,624,251.1,10.3333283,55.670249
San Francisco,1,1,4,0,1.5,-122.4199061,37.7790262
Pune,0,2,2,17,7.6,73.8544541,18.521428
Hyderabad,0,3,2,4,2.5,78.46106473453146,17.38878595
"Miami, Florida",1,0,0,0,0.2,-80.1936589,25.7742658
Kolkata,0,8,0,37,15.6,88.3567751581234,22.54541245
"Surat,Gujrat,India",10,20,87,21,38.5,73.227074935578,22.336816749999997
Barranquilla Colombia,6,16,12,74,36.0,-74.8013085,10.9799669
Indianapolis,6,16,12,4,8.0,-86.1583502,39.7683331
Sathyamangalam,2,1,0,20,8.5,77.26537576524208,11.5523741
"Ottawa, Canada",2,5,9,120,51.6,-75.690308,45.421106
Bengaluru,0,0,1,94,37.9,77.5912997,12.9791198
"New Delhi,India",13,24,32,232,107.4,77.2090057,28.6138954
USA,2,0,2,20,9.0,-100.4458825,39.7837304
Copenhagen,9,14,0,4,4.800000000000002,12.5700724,55.6867243
india,0,0,7,75,32.1,78.6677428,22.3511148
"Kashanyarazi-Kamukuzi, Mbarara City",1,3,0,10,4.5,30.6533181,-0.6107896
pakistan karachi,4,14,3,141,59.50000000000001,67.0311286,24.8667795
Wrocław,3,11,17,169,74.4,17.0326689,51.1089776
Poland,4,0,4,6,4.4,19.134422,52.215933
Brazil,14,14,17,119,56.90000000000001,-53.2,-10.3333333
"Maastricht, Netherlands",5,6,24,5,10.8,5.6909768,50.8512438
"Nashik, Maharashtra, India",1,0,0,5,2.2,73.7902364,20.0112475
India,2,3,1,2,1.8,78.6677428,22.3511148
France,0,1,0,9,3.7,1.8883335,46.603354
"Fremont, California",0,0,6,327,132.60000000000002,-121.9885719,37.5482697
New Zealand,1,0,3,103,42.3,172.8344077,-41.5000831
"Jakarta, Indonesia",1,0,3,5,3.1,106.827183,-6.1753942
New Delhi,1,0,0,504,201.8,77.2090057,28.6138954
"Malang, Jawa Timur",3,0,0,43,17.8,112.68798721390587,-8.10479815
London,0,6,7,3310,1326.7,-0.1276474,51.5073219
Kolkata,14,5,35,220,101.8,88.3567751581234,22.54541245
"Alicante, Spain",2,6,1,16,7.7,-0.4901846,38.353738
"Lamia, Greece",4,0,0,0,0.8,22.4341691,38.9004584
Dhaka,2,15,16,336,141.1,90.4126466,23.810651
Toronto,0,1,2,81,33.1,-79.3839347,43.6534817
"Surat,Gujarat,India",2,1,0,22,9.3,72.8081281,21.1864607
Hyderabad,4,8,23,42,25.3,78.46106473453146,17.38878595
"San Jose, CA, USA",2,3,3,109,45.2,-121.8905833,37.3361905
Pune,2,3,3,16,8.0,73.8544541,18.521428
"Khulna-9203, Bangladesh",20,7,4,113,51.1,89.563759,22.8171664
Ireland,7,20,0,30,15.4,-7.9794599,52.865196
"Gainesville, Florida",1,1,1,2,1.4,-82.3249846,29.6519684
"Bangalore, India",0,7,23,22,16.4,77.5912997,12.9791198
Bangalore,0,7,23,2,8.4,77.5912997,12.9791198
"Melbourne, Australia",0,7,23,206,90.0,144.9631608,-37.8142176
Canada,14,21,141,1387,602.0000000000001,-107.9917071,61.0666922
Delhi,5,30,0,46,22.4,77.1716954,28.6273928
South Korea,5,10,7,98,43.3,127.6961188,36.638392
"Germany, Hamburg",5,10,7,6,6.5,10.000654,53.550341
Hyderabad,0,8,8,89,38.8,78.46106473453146,17.38878595
"Pune, India",19,38,9,98,49.5,73.8544541,18.521428
"Bengaluru, Karnataka, India",19,38,9,14,15.900000000000002,77.5912997,12.9791198
Joypurhat,19,38,9,28,21.5,89.0209157,25.1034476
"Mumbai, India",43,44,10,1132,468.8,72.8353355,18.9387711
"Winnipeg, Manitoba",43,44,10,779,327.6,-97.1384584,49.8955367
Charlottesville,6,23,18,47,27.700000000000006,-78.4766781,38.029306
"New York, NY",0,1,8,251,102.9,-74.0060152,40.7127281
"Valsad,India",8,5,3,165,69.0,73.1411715553577,20.4324018
"San Francisco, CA",6,0,0,114,46.8,-71.2743272,46.8443248
"Jaipur, Rajasthan, India",52,17,24,253,120.5,75.820349,26.916194
Dublin,1,1,11,63,28.800000000000004,-6.2602732,53.3497645
"Toronto, ON",1,1,11,21,12.0,-79.3839347,43.6534817
"Escondido, CA",1,2,4,33,14.8,-117.0814849,33.1216751
"xalapa,ver mexico",0,1,3,26,11.4,-96.9146374,19.5408338
India,4,6,0,108,44.6,78.6677428,22.3511148
Chennai,0,0,1,32,13.1,80.2838331,13.0801721
"Noida, UP India",10,9,20,215,94.9,77.3910727,28.5356329
Boston,2,14,6,42,20.4,-71.0582912,42.3602534
Egypt,2,14,6,24,13.2,29.2675469,26.2540493
Colorado,1,5,1,214,86.60000000000002,-105.6077167,38.7251776
